{
    "origin": "Amsterdam",
    "destination": "Friedrichshafen",
    "alternatives": [
        {
            "type": "rail",
            "legs": [
                {
                    "start": {
                        "name": "AMSTERDAM CENTRAAL (Netherlands)",
                        "lat": 52.378607,
                        "lon": 4.900829
                    },
                    "end": {
                        "name": "DUESSELDORF HBF (Germany)",
                        "lat": 51.219996,
                        "lon": 6.794443
                    },
                    "time_s": 9720.0
                },
                {
                    "start": {
                        "name": "DUESSELDORF HBF (Germany)",
                        "lat": 51.219996,
                        "lon": 6.794443
                    },
                    "end": {
                        "name": "FRANKFURT(M) FLUGHAFEN FERNBF (Germany)",
                        "lat": 50.053052,
                        "lon": 8.57028
                    },
                    "time_s": 5100.0
                },
                {
                    "start": {
                        "name": "FRANKFURT(M) FLUGHAFEN FERNBF (Germany)",
                        "lat": 50.053052,
                        "lon": 8.57028
                    },
                    "end": {
                        "name": "ULM HBF (Germany)",
                        "lat": 48.399442,
                        "lon": 9.982224
                    },
                    "time_s": 8280.0
                },
                {
                    "start": {
                        "name": "ULM HBF (Germany)",
                        "lat": 48.399442,
                        "lon": 9.982224
                    },
                    "end": {
                        "name": "FRIEDRICHSHAFEN STADT (Germany)",
                        "lat": 47.653337,
                        "lon": 9.473893
                    },
                    "time_s": 3960.0
                }
            ],
            "total_duration_s": 29820.0,
            "total_distance_km": 665.1816667550623
        },
        {
            "type": "air",
            "legs": [
                {
                    "start": {
                        "name": "AMS"
                    },
                    "end": {
                        "name": "FRA"
                    },
                    "aircraft": "32A",
                    "distance": 366.57375472178785
                },
                {
                    "start": {
                        "name": "FRA"
                    },
                    "end": {
                        "name": "FDH"
                    },
                    "aircraft": "CR9",
                    "distance": 271.51330066912493
                }
            ],
            "total_duration_s": "PT3H",
            "total_distance_km": 638.0870553909128
        }
    ]
}