{
    "origin": "Bergen",
    "destination": "Toulouse",
    "alternatives": [
        {
            "type": "rail",
            "legs": [
                {
                    "start": {
                        "name": "MONS (Belgium)",
                        "lat": 50.453612,
                        "lon": 3.942498
                    },
                    "end": {
                        "name": "ATH (Belgium)",
                        "lat": 50.626663,
                        "lon": 3.777222
                    },
                    "time_s": 1380.0
                },
                {
                    "start": {
                        "name": "ATH (Belgium)",
                        "lat": 50.626663,
                        "lon": 3.777222
                    },
                    "end": {
                        "name": "BRUXELLES-MIDI (Belgium)",
                        "lat": 50.835554,
                        "lon": 4.336387
                    },
                    "time_s": 2340.0
                },
                {
                    "start": {
                        "name": "BRUXELLES-MIDI (Belgium)",
                        "lat": 50.835554,
                        "lon": 4.336387
                    },
                    "end": {
                        "name": "PARIS NORD (France)",
                        "lat": 48.880275,
                        "lon": 2.355282
                    },
                    "time_s": 4920.0
                },
                {
                    "start": {
                        "name": "PARIS NORD (France)",
                        "lat": 48.880275,
                        "lon": 2.355282
                    },
                    "end": {
                        "name": "PARIS MONTPARNASSE 1 ET 2 (France)",
                        "lat": 48.839724,
                        "lon": 2.318615
                    },
                    "time_s": 3000.0
                },
                {
                    "start": {
                        "name": "PARIS MONTPARNASSE 1 ET 2 (France)",
                        "lat": 48.839724,
                        "lon": 2.318615
                    },
                    "end": {
                        "name": "TOULOUSE MATABIAU (France)",
                        "lat": 43.611113,
                        "lon": 1.45361
                    },
                    "time_s": 15600.0
                }
            ],
            "total_duration_s": 30420.0,
            "total_distance_km": 918.3035491124579
        },
        {
            "type": "air",
            "legs": [
                {
                    "start": {
                        "name": "BGO"
                    },
                    "end": {
                        "name": "FRA"
                    },
                    "aircraft": "32N",
                    "distance": 1160.1912891965585
                },
                {
                    "start": {
                        "name": "FRA"
                    },
                    "end": {
                        "name": "TLS"
                    },
                    "aircraft": "32A",
                    "distance": 897.82822433731
                }
            ],
            "total_duration_s": "PT11H50M",
            "total_distance_km": 2058.0195135338686
        }
    ]
}