{
    "origin": "Bologna",
    "destination": "Frankfurt",
    "alternatives": [
        {
            "type": "rail",
            "legs": [
                {
                    "start": {
                        "name": "BOLOGNA CENTRALE (Italy)",
                        "lat": 44.506393,
                        "lon": 11.341942
                    },
                    "end": {
                        "name": "MILANO CENTRALE (Italy)",
                        "lat": 45.486388,
                        "lon": 9.204163
                    },
                    "time_s": 5820.0
                },
                {
                    "start": {
                        "name": "MILANO CENTRALE (Italy)",
                        "lat": 45.486388,
                        "lon": 9.204163
                    },
                    "end": {
                        "name": "MILANO P.GARIBALDI (Italy)",
                        "lat": 45.484725,
                        "lon": 9.187776
                    },
                    "time_s": 900.0
                },
                {
                    "start": {
                        "name": "MILANO P.GARIBALDI (Italy)",
                        "lat": 45.484725,
                        "lon": 9.187776
                    },
                    "end": {
                        "name": "BASEL SBB (Switzerland)",
                        "lat": 47.547498,
                        "lon": 7.58944
                    },
                    "time_s": 17460.0
                },
                {
                    "start": {
                        "name": "BASEL SBB (Switzerland)",
                        "lat": 47.547498,
                        "lon": 7.58944
                    },
                    "end": {
                        "name": "FRANKFURT(MAIN)HBF (Germany)",
                        "lat": 50.107221,
                        "lon": 8.663893
                    },
                    "time_s": 9960.0
                }
            ],
            "total_duration_s": 34740.0,
            "total_distance_km": 756.8205301504493
        },
        {
            "type": "air",
            "legs": [
                {
                    "start": {
                        "name": "BLQ"
                    },
                    "end": {
                        "name": "FRA"
                    },
                    "aircraft": "319",
                    "distance": 644.6919857273069
                }
            ],
            "total_duration_s": "PT1H30M",
            "total_distance_km": 644.6919857273069
        }
    ]
}