{
    "origin": "Bologna",
    "destination": "Paris",
    "alternatives": [
        {
            "type": "rail",
            "legs": [
                {
                    "start": {
                        "name": "BOLOGNA CENTRALE (Italy)",
                        "lat": 44.506393,
                        "lon": 11.341942
                    },
                    "end": {
                        "name": "MILANO CENTRALE (Italy)",
                        "lat": 45.486388,
                        "lon": 9.204163
                    },
                    "time_s": 5340.0
                },
                {
                    "start": {
                        "name": "MILANO CENTRALE (Italy)",
                        "lat": 45.486388,
                        "lon": 9.204163
                    },
                    "end": {
                        "name": "BASEL SBB (Switzerland)",
                        "lat": 47.547498,
                        "lon": 7.58944
                    },
                    "time_s": 15120.0
                },
                {
                    "start": {
                        "name": "BASEL SBB (Switzerland)",
                        "lat": 47.547498,
                        "lon": 7.58944
                    },
                    "end": {
                        "name": "STRASBOURG (France)",
                        "lat": 48.584997,
                        "lon": 7.734723
                    },
                    "time_s": 4680.0
                },
                {
                    "start": {
                        "name": "STRASBOURG (France)",
                        "lat": 48.584997,
                        "lon": 7.734723
                    },
                    "end": {
                        "name": "PARIS EST (France)",
                        "lat": 48.877497,
                        "lon": 2.358886
                    },
                    "time_s": 6960.0
                }
            ],
            "total_duration_s": 34620.0,
            "total_distance_km": 972.0771758551466
        },
        {
            "type": "air",
            "legs": [
                {
                    "start": {
                        "name": "BLQ"
                    },
                    "end": {
                        "name": "CDG"
                    },
                    "aircraft": "319",
                    "distance": 830.244310772242
                }
            ],
            "total_duration_s": "PT1H45M",
            "total_distance_km": 830.244310772242
        }
    ]
}