{
    "origin": "Budapest",
    "destination": "Lille",
    "alternatives": [
        {
            "type": "rail",
            "legs": [
                {
                    "start": {
                        "name": "BUDAPEST-KELENFOELD (Hungary)",
                        "lat": 47.464447,
                        "lon": 19.019997
                    },
                    "end": {
                        "name": "WIEN HBF (Austria)",
                        "lat": 48.185004,
                        "lon": 16.375829
                    },
                    "time_s": 8760.0
                },
                {
                    "start": {
                        "name": "WIEN HBF (Austria)",
                        "lat": 48.185004,
                        "lon": 16.375829
                    },
                    "end": {
                        "name": "STRASBOURG (France)",
                        "lat": 48.584997,
                        "lon": 7.734723
                    },
                    "time_s": 33840.0
                },
                {
                    "start": {
                        "name": "STRASBOURG (France)",
                        "lat": 48.584997,
                        "lon": 7.734723
                    },
                    "end": {
                        "name": "PARIS AEROPORT CDG2 TGV ROISSY (France)",
                        "lat": 49.003885,
                        "lon": 2.571113
                    },
                    "time_s": 7320.0
                },
                {
                    "start": {
                        "name": "PARIS AEROPORT CDG2 TGV ROISSY (France)",
                        "lat": 49.003885,
                        "lon": 2.571113
                    },
                    "end": {
                        "name": "LILLE EUROPE (France)",
                        "lat": 50.639446,
                        "lon": 3.07556
                    },
                    "time_s": 2940.0
                }
            ],
            "total_duration_s": 57660.0,
            "total_distance_km": 1418.807282616241
        },
        {
            "type": "air",
            "legs": [
                {
                    "start": {
                        "name": "BUD"
                    },
                    "end": {
                        "name": "CDG"
                    },
                    "aircraft": "32A",
                    "distance": 1247.8723101988132
                },
                {
                    "start": {
                        "name": "CDG"
                    },
                    "end": {
                        "name": "LYS"
                    },
                    "aircraft": "321",
                    "distance": 412.18284884671124
                },
                {
                    "start": {
                        "name": "LYS"
                    },
                    "end": {
                        "name": "LIL"
                    },
                    "aircraft": "E70",
                    "distance": 557.858500923973
                }
            ],
            "total_duration_s": "PT9H15M",
            "total_distance_km": 2217.9136599694975
        }
    ]
}