{
    "origin": "Budapest",
    "destination": "Belgrade",
    "alternatives": [
        {
            "type": "rail",
            "legs": [
                {
                    "start": {
                        "name": "BUDAPEST-KELENFOELD (Hungary)",
                        "lat": 47.464447,
                        "lon": 19.019997
                    },
                    "end": {
                        "name": "MUENCHEN HBF GL.5-10 (Germany)",
                        "lat": 48.140004,
                        "lon": 11.555274
                    },
                    "time_s": 23760.0
                },
                {
                    "start": {
                        "name": "MUENCHEN HBF GL.5-10 (Germany)",
                        "lat": 48.140004,
                        "lon": 11.555274
                    },
                    "end": {
                        "name": "MUENCHEN HBF (Germany)",
                        "lat": 48.140274,
                        "lon": 11.55833
                    },
                    "time_s": 600.0
                },
                {
                    "start": {
                        "name": "MUENCHEN HBF (Germany)",
                        "lat": 48.140274,
                        "lon": 11.55833
                    },
                    "end": {
                        "name": "KOELN HBF (Germany)",
                        "lat": 50.943056,
                        "lon": 6.958613
                    },
                    "time_s": 21720.0
                },
                {
                    "start": {
                        "name": "KOELN HBF (Germany)",
                        "lat": 50.943056,
                        "lon": 6.958613
                    },
                    "end": {
                        "name": "BRUXELLES-MIDI (Belgium)",
                        "lat": 50.835554,
                        "lon": 4.336387
                    },
                    "time_s": 6720.0
                },
                {
                    "start": {
                        "name": "BRUXELLES-MIDI (Belgium)",
                        "lat": 50.835554,
                        "lon": 4.336387
                    },
                    "end": {
                        "name": "GRAMMONT (Belgium)",
                        "lat": 50.771111,
                        "lon": 3.87222
                    },
                    "time_s": 2460.0
                }
            ],
            "total_duration_s": 63540.0,
            "total_distance_km": 1235.3941739000568
        },
        {
            "type": "air",
            "legs": [
                {
                    "start": {
                        "name": "BUD"
                    },
                    "end": {
                        "name": "OTP"
                    },
                    "aircraft": "73W",
                    "distance": 615.1852737514455
                },
                {
                    "start": {
                        "name": "OTP"
                    },
                    "end": {
                        "name": "BEG"
                    },
                    "aircraft": "AT7",
                    "distance": 457.28397268178156
                }
            ],
            "total_duration_s": "PT11H25M",
            "total_distance_km": 1072.469246433227
        }
    ]
}