{
    "origin": "Cologne",
    "destination": "Rome",
    "alternatives": [
        {
            "type": "rail",
            "legs": [
                {
                    "start": {
                        "name": "KOELN HBF (Germany)",
                        "lat": 50.943056,
                        "lon": 6.958613
                    },
                    "end": {
                        "name": "MANNHEIM HBF (Germany)",
                        "lat": 49.479442,
                        "lon": 8.46889
                    },
                    "time_s": 5700.0
                },
                {
                    "start": {
                        "name": "MANNHEIM HBF (Germany)",
                        "lat": 49.479442,
                        "lon": 8.46889
                    },
                    "end": {
                        "name": "BASEL SBB (Switzerland)",
                        "lat": 47.547498,
                        "lon": 7.58944
                    },
                    "time_s": 7920.0
                },
                {
                    "start": {
                        "name": "BASEL SBB (Switzerland)",
                        "lat": 47.547498,
                        "lon": 7.58944
                    },
                    "end": {
                        "name": "MILANO CENTRALE (Italy)",
                        "lat": 45.486388,
                        "lon": 9.204163
                    },
                    "time_s": 15120.0
                },
                {
                    "start": {
                        "name": "MILANO CENTRALE (Italy)",
                        "lat": 45.486388,
                        "lon": 9.204163
                    },
                    "end": {
                        "name": "ROMA TERMINI (Italy)",
                        "lat": 41.900555,
                        "lon": 12.501667
                    },
                    "time_s": 14040.0
                }
            ],
            "total_duration_s": 46860.0,
            "total_distance_km": 1158.4694583069977
        },
        {
            "type": "air",
            "legs": [
                {
                    "start": {
                        "name": "CGN"
                    },
                    "end": {
                        "name": "FCO"
                    },
                    "aircraft": "319",
                    "distance": 1080.6621219183978
                }
            ],
            "total_duration_s": "PT2H",
            "total_distance_km": 1080.6621219183978
        }
    ]
}