{
    "origin": "Cologne",
    "destination": "Glasgow",
    "alternatives": [
        {
            "type": "rail",
            "legs": [
                {
                    "start": {
                        "name": "KOELN HBF (Germany)",
                        "lat": 50.943056,
                        "lon": 6.958613
                    },
                    "end": {
                        "name": "PARIS NORD (France)",
                        "lat": 48.880275,
                        "lon": 2.355282
                    },
                    "time_s": 12060.0
                },
                {
                    "start": {
                        "name": "PARIS NORD (France)",
                        "lat": 48.880275,
                        "lon": 2.355282
                    },
                    "end": {
                        "name": "PARIS NORD (France)",
                        "lat": 48.880275,
                        "lon": 2.355282
                    },
                    "time_s": 2100.0
                },
                {
                    "start": {
                        "name": "PARIS NORD (France)",
                        "lat": 48.880275,
                        "lon": 2.355282
                    },
                    "end": {
                        "name": "LONDON ST PANCRAS INTL (United Kingdom)",
                        "lat": 51.530555,
                        "lon": -0.125274
                    },
                    "time_s": 4620.0
                },
                {
                    "start": {
                        "name": "LONDON ST PANCRAS INTL (United Kingdom)",
                        "lat": 51.530555,
                        "lon": -0.125274
                    },
                    "end": {
                        "name": "LONDON EUSTON (United Kingdom)",
                        "lat": 51.525836,
                        "lon": -0.133058
                    },
                    "time_s": 3600.0
                },
                {
                    "start": {
                        "name": "LONDON EUSTON (United Kingdom)",
                        "lat": 51.525836,
                        "lon": -0.133058
                    },
                    "end": {
                        "name": "GLASGOW CENTRAL (United Kingdom)",
                        "lat": 55.857504,
                        "lon": -4.257777
                    },
                    "time_s": 16200.0
                }
            ],
            "total_duration_s": 40560.0,
            "total_distance_km": 1298.4146435991183
        },
        {
            "type": "air",
            "legs": [
                {
                    "start": {
                        "name": "CGN"
                    },
                    "end": {
                        "name": "AYT"
                    },
                    "aircraft": "737",
                    "distance": 2432.0871996945934
                },
                {
                    "start": {
                        "name": "AYT"
                    },
                    "end": {
                        "name": "GLA"
                    },
                    "aircraft": "737",
                    "distance": 3368.1670077612657
                }
            ],
            "total_duration_s": "PT10H30M",
            "total_distance_km": 5800.254207455859
        }
    ]
}