{
    "origin": "Cologne",
    "destination": "Liverpool",
    "alternatives": [
        {
            "type": "rail",
            "legs": [
                {
                    "start": {
                        "name": "KOELN HBF (Germany)",
                        "lat": 50.943056,
                        "lon": 6.958613
                    },
                    "end": {
                        "name": "PARIS NORD (France)",
                        "lat": 48.880275,
                        "lon": 2.355282
                    },
                    "time_s": 12060.0
                },
                {
                    "start": {
                        "name": "PARIS NORD (France)",
                        "lat": 48.880275,
                        "lon": 2.355282
                    },
                    "end": {
                        "name": "PARIS NORD (France)",
                        "lat": 48.880275,
                        "lon": 2.355282
                    },
                    "time_s": 2100.0
                },
                {
                    "start": {
                        "name": "PARIS NORD (France)",
                        "lat": 48.880275,
                        "lon": 2.355282
                    },
                    "end": {
                        "name": "LONDON ST PANCRAS INTL (United Kingdom)",
                        "lat": 51.530555,
                        "lon": -0.125274
                    },
                    "time_s": 4620.0
                },
                {
                    "start": {
                        "name": "LONDON ST PANCRAS INTL (United Kingdom)",
                        "lat": 51.530555,
                        "lon": -0.125274
                    },
                    "end": {
                        "name": "LONDON EUSTON (United Kingdom)",
                        "lat": 51.525836,
                        "lon": -0.133058
                    },
                    "time_s": 3600.0
                },
                {
                    "start": {
                        "name": "LONDON EUSTON (United Kingdom)",
                        "lat": 51.525836,
                        "lon": -0.133058
                    },
                    "end": {
                        "name": "WARRINGTON BANK QUAY (United Kingdom)",
                        "lat": 53.382504,
                        "lon": -2.601388
                    },
                    "time_s": 6240.0
                },
                {
                    "start": {
                        "name": "WARRINGTON BANK QUAY (United Kingdom)",
                        "lat": 53.382504,
                        "lon": -2.601388
                    },
                    "end": {
                        "name": "NEWTON-LE-WILLOWS (United Kingdom)",
                        "lat": 53.450004,
                        "lon": -2.612778
                    },
                    "time_s": 660.0
                },
                {
                    "start": {
                        "name": "NEWTON-LE-WILLOWS (United Kingdom)",
                        "lat": 53.450004,
                        "lon": -2.612778
                    },
                    "end": {
                        "name": "LIVERPOOL LIME STREET (United Kingdom)",
                        "lat": 53.404447,
                        "lon": -2.976391
                    },
                    "time_s": 1500.0
                }
            ],
            "total_duration_s": 33660.0,
            "total_distance_km": 1043.5243743120177
        },
        {
            "type": "air",
            "legs": [
                {
                    "start": {
                        "name": "CGN"
                    },
                    "end": {
                        "name": "MUC"
                    },
                    "aircraft": "744",
                    "distance": 435.70095418874473
                },
                {
                    "start": {
                        "name": "MUC"
                    },
                    "end": {
                        "name": "FRA"
                    },
                    "aircraft": "32N",
                    "distance": 299.0786454580804
                },
                {
                    "start": {
                        "name": "FRA"
                    },
                    "end": {
                        "name": "LPL"
                    },
                    "aircraft": "CR9",
                    "distance": 867.3535342196461
                }
            ],
            "total_duration_s": "PT36H35M",
            "total_distance_km": 1602.1331338664713
        }
    ]
}