{
    "origin": "Cork",
    "destination": "Shannon",
    "alternatives": [
        {
            "type": "rail",
            "legs": [
                {
                    "start": {
                        "name": "CORK (Ireland)",
                        "lat": 51.901801,
                        "lon": -8.458202
                    },
                    "end": {
                        "name": "MALLOW (Ireland)",
                        "lat": 52.139601,
                        "lon": -8.65521
                    },
                    "time_s": 1260.0
                },
                {
                    "start": {
                        "name": "MALLOW (Ireland)",
                        "lat": 52.139601,
                        "lon": -8.65521
                    },
                    "end": {
                        "name": "DUBLIN HEUSTON (Ireland)",
                        "lat": 53.346385,
                        "lon": -6.294723
                    },
                    "time_s": 7440.0
                },
                {
                    "start": {
                        "name": "DUBLIN HEUSTON (Ireland)",
                        "lat": 53.346385,
                        "lon": -6.294723
                    },
                    "end": {
                        "name": "CHERRY ORCHARD (Ireland)",
                        "lat": 53.33389,
                        "lon": -6.378611
                    },
                    "time_s": 420.0
                },
                {
                    "start": {
                        "name": "CHERRY ORCHARD (Ireland)",
                        "lat": 53.33389,
                        "lon": -6.378611
                    },
                    "end": {
                        "name": "DRUMCONDRA (Ireland)",
                        "lat": 53.363204,
                        "lon": -6.259081
                    },
                    "time_s": 960.0
                },
                {
                    "start": {
                        "name": "DRUMCONDRA (Ireland)",
                        "lat": 53.363204,
                        "lon": -6.259081
                    },
                    "end": {
                        "name": "CARRICK ON SHANNON (Ireland)",
                        "lat": 53.938334,
                        "lon": -8.10667
                    },
                    "time_s": 7860.0
                }
            ],
            "total_duration_s": 26220.0,
            "total_distance_km": 389.4917421090557
        },
        {
            "type": "air",
            "legs": [
                {
                    "start": {
                        "name": "ORK"
                    },
                    "end": {
                        "name": "LHR"
                    },
                    "aircraft": "320",
                    "distance": 555.1276824443839
                },
                {
                    "start": {
                        "name": "LHR"
                    },
                    "end": {
                        "name": "SNN"
                    },
                    "aircraft": "320",
                    "distance": 593.8464272976679
                }
            ],
            "total_duration_s": "PT4H25M",
            "total_distance_km": 1148.974109742052
        }
    ]
}