{
    "origin": "Debrecen",
    "destination": "Malaga",
    "alternatives": [
        {
            "type": "rail",
            "legs": [
                {
                    "start": {
                        "name": "DEBRECEN (Hungary)",
                        "lat": 47.520279,
                        "lon": 21.628613
                    },
                    "end": {
                        "name": "ZUGLO (Hungary)",
                        "lat": 47.511388,
                        "lon": 19.101385
                    },
                    "time_s": 8460.0
                },
                {
                    "start": {
                        "name": "ZUGLO (Hungary)",
                        "lat": 47.511388,
                        "lon": 19.101385
                    },
                    "end": {
                        "name": "BUDAPEST-KELETI (Hungary)",
                        "lat": 47.500278,
                        "lon": 19.084171
                    },
                    "time_s": 1200.0
                },
                {
                    "start": {
                        "name": "BUDAPEST-KELETI (Hungary)",
                        "lat": 47.500278,
                        "lon": 19.084171
                    },
                    "end": {
                        "name": "ZUERICH HB (Switzerland)",
                        "lat": 47.37806,
                        "lon": 8.540274
                    },
                    "time_s": 42000.0
                },
                {
                    "start": {
                        "name": "ZUERICH HB (Switzerland)",
                        "lat": 47.37806,
                        "lon": 8.540274
                    },
                    "end": {
                        "name": "GENEVE (Switzerland)",
                        "lat": 46.210281,
                        "lon": 6.1425
                    },
                    "time_s": 9960.0
                },
                {
                    "start": {
                        "name": "GENEVE (Switzerland)",
                        "lat": 46.210281,
                        "lon": 6.1425
                    },
                    "end": {
                        "name": "LYON PART DIEU (France)",
                        "lat": 45.760281,
                        "lon": 4.858885
                    },
                    "time_s": 7020.0
                },
                {
                    "start": {
                        "name": "LYON PART DIEU (France)",
                        "lat": 45.760281,
                        "lon": 4.858885
                    },
                    "end": {
                        "name": "BARCELONA-SANTS (Spain)",
                        "lat": 41.379442,
                        "lon": 2.140556
                    },
                    "time_s": 17820.0
                },
                {
                    "start": {
                        "name": "BARCELONA-SANTS (Spain)",
                        "lat": 41.379442,
                        "lon": 2.140556
                    },
                    "end": {
                        "name": "MADRID-PUERTA DE ATOCHA (Spain)",
                        "lat": 40.406386,
                        "lon": -3.690836
                    },
                    "time_s": 11820.0
                },
                {
                    "start": {
                        "name": "MADRID-PUERTA DE ATOCHA (Spain)",
                        "lat": 40.406386,
                        "lon": -3.690836
                    },
                    "end": {
                        "name": "MALAGA MARIA ZAMBRANO (Spain)",
                        "lat": 36.711946,
                        "lon": -4.431943
                    },
                    "time_s": 10500.0
                }
            ],
            "total_duration_s": 150180.0,
            "total_distance_km": 2770.844316658729
        },
        {
            "type": "air",
            "legs": [
                {
                    "start": {
                        "name": "DEB"
                    },
                    "end": {
                        "name": "MUC"
                    },
                    "aircraft": "CR9",
                    "distance": 738.2098347984412
                },
                {
                    "start": {
                        "name": "MUC"
                    },
                    "end": {
                        "name": "AGP"
                    },
                    "aircraft": "320",
                    "distance": 1854.9467527954828
                }
            ],
            "total_duration_s": "PT18H40M",
            "total_distance_km": 2593.156587593924
        }
    ]
}