{
    "origin": "Debrecen",
    "destination": "Cardiff",
    "alternatives": [
        {
            "type": "rail",
            "legs": [
                {
                    "start": {
                        "name": "DEBRECEN (Hungary)",
                        "lat": 47.520279,
                        "lon": 21.628613
                    },
                    "end": {
                        "name": "ZUGLO (Hungary)",
                        "lat": 47.511388,
                        "lon": 19.101385
                    },
                    "time_s": 8460.0
                },
                {
                    "start": {
                        "name": "ZUGLO (Hungary)",
                        "lat": 47.511388,
                        "lon": 19.101385
                    },
                    "end": {
                        "name": "BUDAPEST-KELETI (Hungary)",
                        "lat": 47.500278,
                        "lon": 19.084171
                    },
                    "time_s": 1200.0
                },
                {
                    "start": {
                        "name": "BUDAPEST-KELETI (Hungary)",
                        "lat": 47.500278,
                        "lon": 19.084171
                    },
                    "end": {
                        "name": "WIEN HBF (Austria)",
                        "lat": 48.185004,
                        "lon": 16.375829
                    },
                    "time_s": 9660.0
                },
                {
                    "start": {
                        "name": "WIEN HBF (Austria)",
                        "lat": 48.185004,
                        "lon": 16.375829
                    },
                    "end": {
                        "name": "STRASBOURG (France)",
                        "lat": 48.584997,
                        "lon": 7.734723
                    },
                    "time_s": 33840.0
                },
                {
                    "start": {
                        "name": "STRASBOURG (France)",
                        "lat": 48.584997,
                        "lon": 7.734723
                    },
                    "end": {
                        "name": "PARIS EST (France)",
                        "lat": 48.877497,
                        "lon": 2.358886
                    },
                    "time_s": 11400.0
                },
                {
                    "start": {
                        "name": "PARIS EST (France)",
                        "lat": 48.877497,
                        "lon": 2.358886
                    },
                    "end": {
                        "name": "PARIS NORD (France)",
                        "lat": 48.880275,
                        "lon": 2.355282
                    },
                    "time_s": 1800.0
                },
                {
                    "start": {
                        "name": "PARIS NORD (France)",
                        "lat": 48.880275,
                        "lon": 2.355282
                    },
                    "end": {
                        "name": "PARIS NORD (France)",
                        "lat": 48.880275,
                        "lon": 2.355282
                    },
                    "time_s": 2100.0
                },
                {
                    "start": {
                        "name": "PARIS NORD (France)",
                        "lat": 48.880275,
                        "lon": 2.355282
                    },
                    "end": {
                        "name": "LONDON ST PANCRAS INTL (United Kingdom)",
                        "lat": 51.530555,
                        "lon": -0.125274
                    },
                    "time_s": 4620.0
                },
                {
                    "start": {
                        "name": "LONDON ST PANCRAS INTL (United Kingdom)",
                        "lat": 51.530555,
                        "lon": -0.125274
                    },
                    "end": {
                        "name": "LONDON PADDINGTON (United Kingdom)",
                        "lat": 51.513889,
                        "lon": -0.175281
                    },
                    "time_s": 5700.0
                },
                {
                    "start": {
                        "name": "LONDON PADDINGTON (United Kingdom)",
                        "lat": 51.513889,
                        "lon": -0.175281
                    },
                    "end": {
                        "name": "CARDIFF CENTRAL (United Kingdom)",
                        "lat": 51.472782,
                        "lon": -3.176392
                    },
                    "time_s": 7140.0
                }
            ],
            "total_duration_s": 94200.0,
            "total_distance_km": 1998.0326724265126
        },
        {
            "type": "air",
            "legs": [
                {
                    "start": {
                        "name": "DEB"
                    },
                    "end": {
                        "name": "MUC"
                    },
                    "aircraft": "CR9",
                    "distance": 738.2098347984412
                },
                {
                    "start": {
                        "name": "MUC"
                    },
                    "end": {
                        "name": "AMS"
                    },
                    "aircraft": "73W",
                    "distance": 664.1671918724076
                },
                {
                    "start": {
                        "name": "AMS"
                    },
                    "end": {
                        "name": "CWL"
                    },
                    "aircraft": "E75",
                    "distance": 565.673671116523
                }
            ],
            "total_duration_s": "PT24H50M",
            "total_distance_km": 1968.050697787372
        }
    ]
}