{
    "origin": "Debrecen",
    "destination": "Milan",
    "alternatives": [
        {
            "type": "rail",
            "legs": [
                {
                    "start": {
                        "name": "DEBRECEN (Hungary)",
                        "lat": 47.520279,
                        "lon": 21.628613
                    },
                    "end": {
                        "name": "KOEBANYA-KISPEST (Hungary)",
                        "lat": 47.463889,
                        "lon": 19.149442
                    },
                    "time_s": 7980.0
                },
                {
                    "start": {
                        "name": "KOEBANYA-KISPEST (Hungary)",
                        "lat": 47.463889,
                        "lon": 19.149442
                    },
                    "end": {
                        "name": "BUDAPEST-KELENFOELD (Hungary)",
                        "lat": 47.464447,
                        "lon": 19.019997
                    },
                    "time_s": 900.0
                },
                {
                    "start": {
                        "name": "BUDAPEST-KELENFOELD (Hungary)",
                        "lat": 47.464447,
                        "lon": 19.019997
                    },
                    "end": {
                        "name": "WIEN HBF (Austria)",
                        "lat": 48.185004,
                        "lon": 16.375829
                    },
                    "time_s": 8760.0
                },
                {
                    "start": {
                        "name": "WIEN HBF (Austria)",
                        "lat": 48.185004,
                        "lon": 16.375829
                    },
                    "end": {
                        "name": "MILANO LAMBRATE (Italy)",
                        "lat": 45.484725,
                        "lon": 9.236947
                    },
                    "time_s": 43860.0
                }
            ],
            "total_duration_s": 66420.0,
            "total_distance_km": 1029.2981317245972
        },
        {
            "type": "air",
            "legs": [
                {
                    "start": {
                        "name": "DEB"
                    },
                    "end": {
                        "name": "MUC"
                    },
                    "aircraft": "CR9",
                    "distance": 738.2098347984412
                },
                {
                    "start": {
                        "name": "MUC"
                    },
                    "end": {
                        "name": "HAM"
                    },
                    "aircraft": "32Q",
                    "distance": 600.0206235940029
                },
                {
                    "start": {
                        "name": "HAM"
                    },
                    "end": {
                        "name": "MXP"
                    },
                    "aircraft": "319",
                    "distance": 894.1177454070908
                }
            ],
            "total_duration_s": "PT50H55M",
            "total_distance_km": 2232.348203799535
        }
    ]
}