{
    "origin": "Debrecen",
    "destination": "Stuttgart",
    "alternatives": [
        {
            "type": "rail",
            "legs": [
                {
                    "start": {
                        "name": "DEBRECEN (Hungary)",
                        "lat": 47.520279,
                        "lon": 21.628613
                    },
                    "end": {
                        "name": "KOEBANYA-KISPEST (Hungary)",
                        "lat": 47.463889,
                        "lon": 19.149442
                    },
                    "time_s": 7980.0
                },
                {
                    "start": {
                        "name": "KOEBANYA-KISPEST (Hungary)",
                        "lat": 47.463889,
                        "lon": 19.149442
                    },
                    "end": {
                        "name": "BUDAPEST-KELENFOELD (Hungary)",
                        "lat": 47.464447,
                        "lon": 19.019997
                    },
                    "time_s": 900.0
                },
                {
                    "start": {
                        "name": "BUDAPEST-KELENFOELD (Hungary)",
                        "lat": 47.464447,
                        "lon": 19.019997
                    },
                    "end": {
                        "name": "MUENCHEN HBF GL.5-10 (Germany)",
                        "lat": 48.140004,
                        "lon": 11.555274
                    },
                    "time_s": 23760.0
                },
                {
                    "start": {
                        "name": "MUENCHEN HBF GL.5-10 (Germany)",
                        "lat": 48.140004,
                        "lon": 11.555274
                    },
                    "end": {
                        "name": "MUENCHEN HBF (Germany)",
                        "lat": 48.140274,
                        "lon": 11.55833
                    },
                    "time_s": 600.0
                },
                {
                    "start": {
                        "name": "MUENCHEN HBF (Germany)",
                        "lat": 48.140274,
                        "lon": 11.55833
                    },
                    "end": {
                        "name": "STUTTGART HBF (Germany)",
                        "lat": 48.784171,
                        "lon": 9.181663
                    },
                    "time_s": 8100.0
                }
            ],
            "total_duration_s": 47340.0,
            "total_distance_km": 947.9610444296784
        },
        {
            "type": "air",
            "legs": [
                {
                    "start": {
                        "name": "DEB"
                    },
                    "end": {
                        "name": "MUC"
                    },
                    "aircraft": "CR9",
                    "distance": 738.2098347984412
                },
                {
                    "start": {
                        "name": "MUC"
                    },
                    "end": {
                        "name": "STR"
                    },
                    "aircraft": "CR9",
                    "distance": 192.49712975274866
                }
            ],
            "total_duration_s": "PT6H5M",
            "total_distance_km": 930.7069645511899
        }
    ]
}