{
    "origin": "Florence",
    "destination": "Lyon",
    "alternatives": [
        {
            "type": "rail",
            "legs": [
                {
                    "start": {
                        "name": "FIRENZE S.M.N. (Italy)",
                        "lat": 43.776667,
                        "lon": 11.247501
                    },
                    "end": {
                        "name": "MILANO CENTRALE (Italy)",
                        "lat": 45.486388,
                        "lon": 9.204163
                    },
                    "time_s": 7680.0
                },
                {
                    "start": {
                        "name": "MILANO CENTRALE (Italy)",
                        "lat": 45.486388,
                        "lon": 9.204163
                    },
                    "end": {
                        "name": "BRIG (Switzerland)",
                        "lat": 46.319446,
                        "lon": 7.988057
                    },
                    "time_s": 6960.0
                },
                {
                    "start": {
                        "name": "BRIG (Switzerland)",
                        "lat": 46.319446,
                        "lon": 7.988057
                    },
                    "end": {
                        "name": "GENEVE (Switzerland)",
                        "lat": 46.210281,
                        "lon": 6.1425
                    },
                    "time_s": 9240.0
                },
                {
                    "start": {
                        "name": "GENEVE (Switzerland)",
                        "lat": 46.210281,
                        "lon": 6.1425
                    },
                    "end": {
                        "name": "CULOZ (France)",
                        "lat": 45.843332,
                        "lon": 5.778886
                    },
                    "time_s": 3420.0
                },
                {
                    "start": {
                        "name": "CULOZ (France)",
                        "lat": 45.843332,
                        "lon": 5.778886
                    },
                    "end": {
                        "name": "LYON PART DIEU (France)",
                        "lat": 45.760281,
                        "lon": 4.858885
                    },
                    "time_s": 3420.0
                }
            ],
            "total_duration_s": 35700.0,
            "total_distance_km": 645.4218944724822
        },
        {
            "type": "air",
            "legs": [
                {
                    "start": {
                        "name": "FLR"
                    },
                    "end": {
                        "name": "CDG"
                    },
                    "aircraft": "319",
                    "distance": 879.3473737244514
                },
                {
                    "start": {
                        "name": "CDG"
                    },
                    "end": {
                        "name": "LYS"
                    },
                    "aircraft": "223",
                    "distance": 412.18284884671124
                }
            ],
            "total_duration_s": "PT4H20M",
            "total_distance_km": 1291.5302225711625
        }
    ]
}