{
    "origin": "Friedrichshafen",
    "destination": "Southampton",
    "alternatives": [
        {
            "type": "rail",
            "legs": [
                {
                    "start": {
                        "name": "FRIEDRICHSHAFEN STADT (Germany)",
                        "lat": 47.653337,
                        "lon": 9.473893
                    },
                    "end": {
                        "name": "ULM HBF (Germany)",
                        "lat": 48.399442,
                        "lon": 9.982224
                    },
                    "time_s": 4320.0
                },
                {
                    "start": {
                        "name": "ULM HBF (Germany)",
                        "lat": 48.399442,
                        "lon": 9.982224
                    },
                    "end": {
                        "name": "KARLSRUHE HBF (Germany)",
                        "lat": 48.993611,
                        "lon": 8.402226
                    },
                    "time_s": 6720.0
                },
                {
                    "start": {
                        "name": "KARLSRUHE HBF (Germany)",
                        "lat": 48.993611,
                        "lon": 8.402226
                    },
                    "end": {
                        "name": "PARIS EST (France)",
                        "lat": 48.877497,
                        "lon": 2.358886
                    },
                    "time_s": 9120.0
                },
                {
                    "start": {
                        "name": "PARIS EST (France)",
                        "lat": 48.877497,
                        "lon": 2.358886
                    },
                    "end": {
                        "name": "PARIS NORD (France)",
                        "lat": 48.880275,
                        "lon": 2.355282
                    },
                    "time_s": 1800.0
                },
                {
                    "start": {
                        "name": "PARIS NORD (France)",
                        "lat": 48.880275,
                        "lon": 2.355282
                    },
                    "end": {
                        "name": "PARIS NORD (France)",
                        "lat": 48.880275,
                        "lon": 2.355282
                    },
                    "time_s": 2100.0
                },
                {
                    "start": {
                        "name": "PARIS NORD (France)",
                        "lat": 48.880275,
                        "lon": 2.355282
                    },
                    "end": {
                        "name": "LONDON ST PANCRAS INTL (United Kingdom)",
                        "lat": 51.530555,
                        "lon": -0.125274
                    },
                    "time_s": 4620.0
                },
                {
                    "start": {
                        "name": "LONDON ST PANCRAS INTL (United Kingdom)",
                        "lat": 51.530555,
                        "lon": -0.125274
                    },
                    "end": {
                        "name": "LONDON WATERLOO (United Kingdom)",
                        "lat": 51.499444,
                        "lon": -0.109722
                    },
                    "time_s": 4380.0
                },
                {
                    "start": {
                        "name": "LONDON WATERLOO (United Kingdom)",
                        "lat": 51.499444,
                        "lon": -0.109722
                    },
                    "end": {
                        "name": "SOUTHAMPTON AIRPORT (United Kingdom)",
                        "lat": 50.948612,
                        "lon": -1.362225
                    },
                    "time_s": 4080.0
                }
            ],
            "total_duration_s": 41640.0,
            "total_distance_km": 1120.2249258975153
        },
        {
            "type": "air",
            "legs": [
                {
                    "start": {
                        "name": "FDH"
                    },
                    "end": {
                        "name": "FRA"
                    },
                    "aircraft": "CR9",
                    "distance": 271.51330066912493
                },
                {
                    "start": {
                        "name": "FRA"
                    },
                    "end": {
                        "name": "AMS"
                    },
                    "aircraft": "32A",
                    "distance": 366.57375472178785
                },
                {
                    "start": {
                        "name": "AMS"
                    },
                    "end": {
                        "name": "SOU"
                    },
                    "aircraft": "E75",
                    "distance": 448.4895717662466
                }
            ],
            "total_duration_s": "PT7H10M",
            "total_distance_km": 1086.5766271571595
        }
    ]
}