{
    "origin": "Friedrichshafen",
    "destination": "Edinburgh",
    "alternatives": [
        {
            "type": "rail",
            "legs": [
                {
                    "start": {
                        "name": "FRIEDRICHSHAFEN STADT (Germany)",
                        "lat": 47.653337,
                        "lon": 9.473893
                    },
                    "end": {
                        "name": "ULM HBF (Germany)",
                        "lat": 48.399442,
                        "lon": 9.982224
                    },
                    "time_s": 4320.0
                },
                {
                    "start": {
                        "name": "ULM HBF (Germany)",
                        "lat": 48.399442,
                        "lon": 9.982224
                    },
                    "end": {
                        "name": "KARLSRUHE HBF (Germany)",
                        "lat": 48.993611,
                        "lon": 8.402226
                    },
                    "time_s": 6720.0
                },
                {
                    "start": {
                        "name": "KARLSRUHE HBF (Germany)",
                        "lat": 48.993611,
                        "lon": 8.402226
                    },
                    "end": {
                        "name": "PARIS EST (France)",
                        "lat": 48.877497,
                        "lon": 2.358886
                    },
                    "time_s": 9120.0
                },
                {
                    "start": {
                        "name": "PARIS EST (France)",
                        "lat": 48.877497,
                        "lon": 2.358886
                    },
                    "end": {
                        "name": "PARIS NORD (France)",
                        "lat": 48.880275,
                        "lon": 2.355282
                    },
                    "time_s": 1800.0
                },
                {
                    "start": {
                        "name": "PARIS NORD (France)",
                        "lat": 48.880275,
                        "lon": 2.355282
                    },
                    "end": {
                        "name": "PARIS NORD (France)",
                        "lat": 48.880275,
                        "lon": 2.355282
                    },
                    "time_s": 2100.0
                },
                {
                    "start": {
                        "name": "PARIS NORD (France)",
                        "lat": 48.880275,
                        "lon": 2.355282
                    },
                    "end": {
                        "name": "LONDON ST PANCRAS INTL (United Kingdom)",
                        "lat": 51.530555,
                        "lon": -0.125274
                    },
                    "time_s": 4620.0
                },
                {
                    "start": {
                        "name": "LONDON ST PANCRAS INTL (United Kingdom)",
                        "lat": 51.530555,
                        "lon": -0.125274
                    },
                    "end": {
                        "name": "LONDON KINGS CROSS (United Kingdom)",
                        "lat": 51.528335,
                        "lon": -0.12139
                    },
                    "time_s": 3060.0
                },
                {
                    "start": {
                        "name": "LONDON KINGS CROSS (United Kingdom)",
                        "lat": 51.528335,
                        "lon": -0.12139
                    },
                    "end": {
                        "name": "YORK (United Kingdom)",
                        "lat": 53.955,
                        "lon": -1.091668
                    },
                    "time_s": 6420.0
                },
                {
                    "start": {
                        "name": "YORK (United Kingdom)",
                        "lat": 53.955,
                        "lon": -1.091668
                    },
                    "end": {
                        "name": "EDINBURGH (United Kingdom)",
                        "lat": 55.949724,
                        "lon": -3.186667
                    },
                    "time_s": 9120.0
                }
            ],
            "total_duration_s": 51900.0,
            "total_distance_km": 1547.0030677132243
        },
        {
            "type": "air",
            "legs": [
                {
                    "start": {
                        "name": "FDH"
                    },
                    "end": {
                        "name": "FRA"
                    },
                    "aircraft": "CR9",
                    "distance": 271.51330066912493
                },
                {
                    "start": {
                        "name": "FRA"
                    },
                    "end": {
                        "name": "EDI"
                    },
                    "aircraft": "321",
                    "distance": 1032.8551268878662
                }
            ],
            "total_duration_s": "PT6H55M",
            "total_distance_km": 1304.368427556991
        }
    ]
}