{
    "origin": "Genoa",
    "destination": "Porto",
    "alternatives": [
        {
            "type": "rail",
            "legs": [
                {
                    "start": {
                        "name": "GENOVA P.ZA PRINCIPE (Italy)",
                        "lat": 44.417778,
                        "lon": 8.920553
                    },
                    "end": {
                        "name": "VENTIMIGLIA (Italy)",
                        "lat": 43.792218,
                        "lon": 7.610277
                    },
                    "time_s": 6960.0
                },
                {
                    "start": {
                        "name": "VENTIMIGLIA (Italy)",
                        "lat": 43.792218,
                        "lon": 7.610277
                    },
                    "end": {
                        "name": "NICE VILLE (France)",
                        "lat": 43.704448,
                        "lon": 7.261945
                    },
                    "time_s": 3600.0
                },
                {
                    "start": {
                        "name": "NICE VILLE (France)",
                        "lat": 43.704448,
                        "lon": 7.261945
                    },
                    "end": {
                        "name": "MARSEILLE ST CHARLES (France)",
                        "lat": 43.302774,
                        "lon": 5.380278
                    },
                    "time_s": 9720.0
                },
                {
                    "start": {
                        "name": "MARSEILLE ST CHARLES (France)",
                        "lat": 43.302774,
                        "lon": 5.380278
                    },
                    "end": {
                        "name": "NIMES (France)",
                        "lat": 43.83222,
                        "lon": 4.365836
                    },
                    "time_s": 5100.0
                },
                {
                    "start": {
                        "name": "NIMES (France)",
                        "lat": 43.83222,
                        "lon": 4.365836
                    },
                    "end": {
                        "name": "BARCELONA-SANTS (Spain)",
                        "lat": 41.379442,
                        "lon": 2.140556
                    },
                    "time_s": 13140.0
                },
                {
                    "start": {
                        "name": "BARCELONA-SANTS (Spain)",
                        "lat": 41.379442,
                        "lon": 2.140556
                    },
                    "end": {
                        "name": "MADRID-PUERTA DE ATOCHA (Spain)",
                        "lat": 40.406386,
                        "lon": -3.690836
                    },
                    "time_s": 12000.0
                },
                {
                    "start": {
                        "name": "MADRID-PUERTA DE ATOCHA (Spain)",
                        "lat": 40.406386,
                        "lon": -3.690836
                    },
                    "end": {
                        "name": "MADRID-ATOCHA CERCANIAS (Spain)",
                        "lat": 40.406665,
                        "lon": -3.689443
                    },
                    "time_s": 1200.0
                },
                {
                    "start": {
                        "name": "MADRID-ATOCHA CERCANIAS (Spain)",
                        "lat": 40.406665,
                        "lon": -3.689443
                    },
                    "end": {
                        "name": "MERIDA (Spain)",
                        "lat": 38.921386,
                        "lon": -6.343885
                    },
                    "time_s": 15000.0
                },
                {
                    "start": {
                        "name": "MERIDA (Spain)",
                        "lat": 38.921386,
                        "lon": -6.343885
                    },
                    "end": {
                        "name": "BADAJOZ (Spain)",
                        "lat": 38.890832,
                        "lon": -6.98167
                    },
                    "time_s": 2400.0
                },
                {
                    "start": {
                        "name": "BADAJOZ (Spain)",
                        "lat": 38.890832,
                        "lon": -6.98167
                    },
                    "end": {
                        "name": "ENTRONCAMENTO (Portugal)",
                        "lat": 39.461665,
                        "lon": -8.474167
                    },
                    "time_s": 6600.0
                },
                {
                    "start": {
                        "name": "ENTRONCAMENTO (Portugal)",
                        "lat": 39.461665,
                        "lon": -8.474167
                    },
                    "end": {
                        "name": "PORTO - CAMPANHA (Portugal)",
                        "lat": 41.149722,
                        "lon": -8.585552
                    },
                    "time_s": 8580.0
                }
            ],
            "total_duration_s": 129300.0,
            "total_distance_km": 1911.6496574528812
        },
        {
            "type": "air",
            "legs": [
                {
                    "start": {
                        "name": "GOA"
                    },
                    "end": {
                        "name": "MUC"
                    },
                    "aircraft": "E95",
                    "distance": 493.00084332362337
                },
                {
                    "start": {
                        "name": "MUC"
                    },
                    "end": {
                        "name": "OPO"
                    },
                    "aircraft": "32A",
                    "distance": 1790.2644879852664
                }
            ],
            "total_duration_s": "PT11H10M",
            "total_distance_km": 2283.26533130889
        }
    ]
}