{
    "origin": "Genoa",
    "destination": "Munich",
    "alternatives": [
        {
            "type": "rail",
            "legs": [
                {
                    "start": {
                        "name": "GENOVA P.ZA PRINCIPE (Italy)",
                        "lat": 44.417778,
                        "lon": 8.920553
                    },
                    "end": {
                        "name": "MILANO CENTRALE (Italy)",
                        "lat": 45.486388,
                        "lon": 9.204163
                    },
                    "time_s": 6600.0
                },
                {
                    "start": {
                        "name": "MILANO CENTRALE (Italy)",
                        "lat": 45.486388,
                        "lon": 9.204163
                    },
                    "end": {
                        "name": "VERONA PORTA NUOVA (Italy)",
                        "lat": 45.428336,
                        "lon": 10.98222
                    },
                    "time_s": 4980.0
                },
                {
                    "start": {
                        "name": "VERONA PORTA NUOVA (Italy)",
                        "lat": 45.428336,
                        "lon": 10.98222
                    },
                    "end": {
                        "name": "BRENNERO BRENNER (Italy)",
                        "lat": 47.001943,
                        "lon": 11.505276
                    },
                    "time_s": 11160.0
                },
                {
                    "start": {
                        "name": "BRENNERO BRENNER (Italy)",
                        "lat": 47.001943,
                        "lon": 11.505276
                    },
                    "end": {
                        "name": "INNSBRUCK HBF (Austria)",
                        "lat": 47.263331,
                        "lon": 11.40056
                    },
                    "time_s": 2400.0
                },
                {
                    "start": {
                        "name": "INNSBRUCK HBF (Austria)",
                        "lat": 47.263331,
                        "lon": 11.40056
                    },
                    "end": {
                        "name": "KUFSTEIN (Austria)",
                        "lat": 47.583059,
                        "lon": 12.16556
                    },
                    "time_s": 2040.0
                },
                {
                    "start": {
                        "name": "KUFSTEIN (Austria)",
                        "lat": 47.583059,
                        "lon": 12.16556
                    },
                    "end": {
                        "name": "MUENCHEN HBF GL.5-10 (Germany)",
                        "lat": 48.140004,
                        "lon": 11.555274
                    },
                    "time_s": 4380.0
                }
            ],
            "total_duration_s": 37500.0,
            "total_distance_km": 613.9131331605012
        },
        {
            "type": "air",
            "legs": [
                {
                    "start": {
                        "name": "GOA"
                    },
                    "end": {
                        "name": "MUC"
                    },
                    "aircraft": "E95",
                    "distance": 493.00084332362337
                }
            ],
            "total_duration_s": "PT1H10M",
            "total_distance_km": 493.00084332362337
        }
    ]
}