{
    "origin": "Genoa",
    "destination": "Budapest",
    "alternatives": [
        {
            "type": "rail",
            "legs": [
                {
                    "start": {
                        "name": "GENOVA P.ZA PRINCIPE (Italy)",
                        "lat": 44.417778,
                        "lon": 8.920553
                    },
                    "end": {
                        "name": "MILANO CENTRALE (Italy)",
                        "lat": 45.486388,
                        "lon": 9.204163
                    },
                    "time_s": 6600.0
                },
                {
                    "start": {
                        "name": "MILANO CENTRALE (Italy)",
                        "lat": 45.486388,
                        "lon": 9.204163
                    },
                    "end": {
                        "name": "VERONA PORTA NUOVA (Italy)",
                        "lat": 45.428336,
                        "lon": 10.98222
                    },
                    "time_s": 4980.0
                },
                {
                    "start": {
                        "name": "VERONA PORTA NUOVA (Italy)",
                        "lat": 45.428336,
                        "lon": 10.98222
                    },
                    "end": {
                        "name": "BRENNERO BRENNER (Italy)",
                        "lat": 47.001943,
                        "lon": 11.505276
                    },
                    "time_s": 11160.0
                },
                {
                    "start": {
                        "name": "BRENNERO BRENNER (Italy)",
                        "lat": 47.001943,
                        "lon": 11.505276
                    },
                    "end": {
                        "name": "INNSBRUCK HBF (Austria)",
                        "lat": 47.263331,
                        "lon": 11.40056
                    },
                    "time_s": 2400.0
                },
                {
                    "start": {
                        "name": "INNSBRUCK HBF (Austria)",
                        "lat": 47.263331,
                        "lon": 11.40056
                    },
                    "end": {
                        "name": "WIEN HBF (Austria)",
                        "lat": 48.185004,
                        "lon": 16.375829
                    },
                    "time_s": 15180.0
                },
                {
                    "start": {
                        "name": "WIEN HBF (Austria)",
                        "lat": 48.185004,
                        "lon": 16.375829
                    },
                    "end": {
                        "name": "BUDAPEST-KELENFOELD (Hungary)",
                        "lat": 47.464447,
                        "lon": 19.019997
                    },
                    "time_s": 8700.0
                }
            ],
            "total_duration_s": 54720.0,
            "total_distance_km": 1068.3604136622248
        },
        {
            "type": "air",
            "legs": [
                {
                    "start": {
                        "name": "GOA"
                    },
                    "end": {
                        "name": "MUC"
                    },
                    "aircraft": "E95",
                    "distance": 493.00084332362337
                },
                {
                    "start": {
                        "name": "MUC"
                    },
                    "end": {
                        "name": "BUD"
                    },
                    "aircraft": "CR9",
                    "distance": 566.4855918491334
                }
            ],
            "total_duration_s": "PT4H",
            "total_distance_km": 1059.4864351727567
        }
    ]
}