{
    "origin": "Hamburg",
    "destination": "Newcastle",
    "alternatives": [
        {
            "type": "rail",
            "legs": [
                {
                    "start": {
                        "name": "HAMBURG-HARBURG (Germany)",
                        "lat": 53.455829,
                        "lon": 9.991663
                    },
                    "end": {
                        "name": "KOELN HBF (Germany)",
                        "lat": 50.943056,
                        "lon": 6.958613
                    },
                    "time_s": 13980.0
                },
                {
                    "start": {
                        "name": "KOELN HBF (Germany)",
                        "lat": 50.943056,
                        "lon": 6.958613
                    },
                    "end": {
                        "name": "BRUXELLES-MIDI (Belgium)",
                        "lat": 50.835554,
                        "lon": 4.336387
                    },
                    "time_s": 6840.0
                },
                {
                    "start": {
                        "name": "BRUXELLES-MIDI (Belgium)",
                        "lat": 50.835554,
                        "lon": 4.336387
                    },
                    "end": {
                        "name": "BRUXELLES-MIDI (Belgium)",
                        "lat": 50.835554,
                        "lon": 4.336387
                    },
                    "time_s": 2100.0
                },
                {
                    "start": {
                        "name": "BRUXELLES-MIDI (Belgium)",
                        "lat": 50.835554,
                        "lon": 4.336387
                    },
                    "end": {
                        "name": "LONDON ST PANCRAS INTL (United Kingdom)",
                        "lat": 51.530555,
                        "lon": -0.125274
                    },
                    "time_s": 3660.0
                },
                {
                    "start": {
                        "name": "LONDON ST PANCRAS INTL (United Kingdom)",
                        "lat": 51.530555,
                        "lon": -0.125274
                    },
                    "end": {
                        "name": "LONDON KINGS CROSS (United Kingdom)",
                        "lat": 51.528335,
                        "lon": -0.12139
                    },
                    "time_s": 3060.0
                },
                {
                    "start": {
                        "name": "LONDON KINGS CROSS (United Kingdom)",
                        "lat": 51.528335,
                        "lon": -0.12139
                    },
                    "end": {
                        "name": "YORK (United Kingdom)",
                        "lat": 53.955,
                        "lon": -1.091668
                    },
                    "time_s": 8940.0
                },
                {
                    "start": {
                        "name": "YORK (United Kingdom)",
                        "lat": 53.955,
                        "lon": -1.091668
                    },
                    "end": {
                        "name": "NEWCASTLE (United Kingdom)",
                        "lat": 54.96528,
                        "lon": -1.615829
                    },
                    "time_s": 3900.0
                }
            ],
            "total_duration_s": 66360.0,
            "total_distance_km": 1247.5071334478027
        },
        {
            "type": "air",
            "legs": [
                {
                    "start": {
                        "name": "HAM"
                    },
                    "end": {
                        "name": "DUS"
                    },
                    "aircraft": "319",
                    "distance": 339.6243907727215
                },
                {
                    "start": {
                        "name": "DUS"
                    },
                    "end": {
                        "name": "NCL"
                    },
                    "aircraft": "32A",
                    "distance": 700.4026579078931
                }
            ],
            "total_duration_s": "PT7H",
            "total_distance_km": 1040.0270486806146
        }
    ]
}