{
    "origin": "Milan",
    "destination": "Cardiff",
    "alternatives": [
        {
            "type": "rail",
            "legs": [
                {
                    "start": {
                        "name": "MILANO CENTRALE (Italy)",
                        "lat": 45.486388,
                        "lon": 9.204163
                    },
                    "end": {
                        "name": "GENEVE (Switzerland)",
                        "lat": 46.210281,
                        "lon": 6.1425
                    },
                    "time_s": 14460.0
                },
                {
                    "start": {
                        "name": "GENEVE (Switzerland)",
                        "lat": 46.210281,
                        "lon": 6.1425
                    },
                    "end": {
                        "name": "PARIS GARE DE LYON (France)",
                        "lat": 48.845001,
                        "lon": 2.373611
                    },
                    "time_s": 11640.0
                },
                {
                    "start": {
                        "name": "PARIS GARE DE LYON (France)",
                        "lat": 48.845001,
                        "lon": 2.373611
                    },
                    "end": {
                        "name": "PARIS NORD (France)",
                        "lat": 48.880275,
                        "lon": 2.355282
                    },
                    "time_s": 2400.0
                },
                {
                    "start": {
                        "name": "PARIS NORD (France)",
                        "lat": 48.880275,
                        "lon": 2.355282
                    },
                    "end": {
                        "name": "PARIS NORD (France)",
                        "lat": 48.880275,
                        "lon": 2.355282
                    },
                    "time_s": 2100.0
                },
                {
                    "start": {
                        "name": "PARIS NORD (France)",
                        "lat": 48.880275,
                        "lon": 2.355282
                    },
                    "end": {
                        "name": "LONDON ST PANCRAS INTL (United Kingdom)",
                        "lat": 51.530555,
                        "lon": -0.125274
                    },
                    "time_s": 4620.0
                },
                {
                    "start": {
                        "name": "LONDON ST PANCRAS INTL (United Kingdom)",
                        "lat": 51.530555,
                        "lon": -0.125274
                    },
                    "end": {
                        "name": "LONDON PADDINGTON (United Kingdom)",
                        "lat": 51.513889,
                        "lon": -0.175281
                    },
                    "time_s": 5700.0
                },
                {
                    "start": {
                        "name": "LONDON PADDINGTON (United Kingdom)",
                        "lat": 51.513889,
                        "lon": -0.175281
                    },
                    "end": {
                        "name": "CARDIFF CENTRAL (United Kingdom)",
                        "lat": 51.472782,
                        "lon": -3.176392
                    },
                    "time_s": 7320.0
                }
            ],
            "total_duration_s": 52200.0,
            "total_distance_km": 1216.982739529402
        },
        {
            "type": "air",
            "legs": [
                {
                    "start": {
                        "name": "MXP"
                    },
                    "end": {
                        "name": "AMS"
                    },
                    "aircraft": "73H",
                    "distance": 796.6435792503995
                },
                {
                    "start": {
                        "name": "AMS"
                    },
                    "end": {
                        "name": "CWL"
                    },
                    "aircraft": "E90",
                    "distance": 565.673671116523
                }
            ],
            "total_duration_s": "PT4H55M",
            "total_distance_km": 1362.3172503669225
        }
    ]
}