{
    "origin": "Milan",
    "destination": "Lisbon",
    "alternatives": [
        {
            "type": "rail",
            "legs": [
                {
                    "start": {
                        "name": "MILANO CENTRALE (Italy)",
                        "lat": 45.486388,
                        "lon": 9.204163
                    },
                    "end": {
                        "name": "GENEVE (Switzerland)",
                        "lat": 46.210281,
                        "lon": 6.1425
                    },
                    "time_s": 14460.0
                },
                {
                    "start": {
                        "name": "GENEVE (Switzerland)",
                        "lat": 46.210281,
                        "lon": 6.1425
                    },
                    "end": {
                        "name": "LYON PART DIEU (France)",
                        "lat": 45.760281,
                        "lon": 4.858885
                    },
                    "time_s": 7020.0
                },
                {
                    "start": {
                        "name": "LYON PART DIEU (France)",
                        "lat": 45.760281,
                        "lon": 4.858885
                    },
                    "end": {
                        "name": "BARCELONA-SANTS (Spain)",
                        "lat": 41.379442,
                        "lon": 2.140556
                    },
                    "time_s": 17820.0
                },
                {
                    "start": {
                        "name": "BARCELONA-SANTS (Spain)",
                        "lat": 41.379442,
                        "lon": 2.140556
                    },
                    "end": {
                        "name": "MADRID-PUERTA DE ATOCHA (Spain)",
                        "lat": 40.406386,
                        "lon": -3.690836
                    },
                    "time_s": 11820.0
                },
                {
                    "start": {
                        "name": "MADRID-PUERTA DE ATOCHA (Spain)",
                        "lat": 40.406386,
                        "lon": -3.690836
                    },
                    "end": {
                        "name": "MADRID-ATOCHA CERCANIAS (Spain)",
                        "lat": 40.406665,
                        "lon": -3.689443
                    },
                    "time_s": 1200.0
                },
                {
                    "start": {
                        "name": "MADRID-ATOCHA CERCANIAS (Spain)",
                        "lat": 40.406665,
                        "lon": -3.689443
                    },
                    "end": {
                        "name": "BADAJOZ (Spain)",
                        "lat": 38.890832,
                        "lon": -6.98167
                    },
                    "time_s": 16440.0
                },
                {
                    "start": {
                        "name": "BADAJOZ (Spain)",
                        "lat": 38.890832,
                        "lon": -6.98167
                    },
                    "end": {
                        "name": "ENTRONCAMENTO (Portugal)",
                        "lat": 39.461665,
                        "lon": -8.474167
                    },
                    "time_s": 6600.0
                },
                {
                    "start": {
                        "name": "ENTRONCAMENTO (Portugal)",
                        "lat": 39.461665,
                        "lon": -8.474167
                    },
                    "end": {
                        "name": "LISBON - ORIENTE (Portugal)",
                        "lat": 38.767779,
                        "lon": -9.098054
                    },
                    "time_s": 5280.0
                }
            ],
            "total_duration_s": 129120.0,
            "total_distance_km": 1963.39396347259
        },
        {
            "type": "air",
            "legs": [
                {
                    "start": {
                        "name": "MXP"
                    },
                    "end": {
                        "name": "LIS"
                    },
                    "aircraft": "32Q",
                    "distance": 1651.709369009739
                }
            ],
            "total_duration_s": "PT2H50M",
            "total_distance_km": 1651.709369009739
        }
    ]
}