{
    "origin": "Nantes",
    "destination": "Munich",
    "alternatives": [
        {
            "type": "rail",
            "legs": [
                {
                    "start": {
                        "name": "NANTES (France)",
                        "lat": 47.217504,
                        "lon": -1.541947
                    },
                    "end": {
                        "name": "PARIS MONTPARNASSE 1 ET 2 (France)",
                        "lat": 48.839724,
                        "lon": 2.318615
                    },
                    "time_s": 7740.0
                },
                {
                    "start": {
                        "name": "PARIS MONTPARNASSE 1 ET 2 (France)",
                        "lat": 48.839724,
                        "lon": 2.318615
                    },
                    "end": {
                        "name": "PARIS EST (France)",
                        "lat": 48.877497,
                        "lon": 2.358886
                    },
                    "time_s": 3000.0
                },
                {
                    "start": {
                        "name": "PARIS EST (France)",
                        "lat": 48.877497,
                        "lon": 2.358886
                    },
                    "end": {
                        "name": "STUTTGART HBF (Germany)",
                        "lat": 48.784171,
                        "lon": 9.181663
                    },
                    "time_s": 11340.0
                },
                {
                    "start": {
                        "name": "STUTTGART HBF (Germany)",
                        "lat": 48.784171,
                        "lon": 9.181663
                    },
                    "end": {
                        "name": "MUENCHEN HBF (Germany)",
                        "lat": 48.140274,
                        "lon": 11.55833
                    },
                    "time_s": 7980.0
                }
            ],
            "total_duration_s": 33720.0,
            "total_distance_km": 1032.7642855703807
        },
        {
            "type": "air",
            "legs": [
                {
                    "start": {
                        "name": "NTE"
                    },
                    "end": {
                        "name": "BCN"
                    },
                    "aircraft": "32A",
                    "distance": 714.2362067199095
                },
                {
                    "start": {
                        "name": "BCN"
                    },
                    "end": {
                        "name": "MUC"
                    },
                    "aircraft": "32A",
                    "distance": 1094.631556748746
                }
            ],
            "total_duration_s": "PT10H30M",
            "total_distance_km": 1808.8677634686555
        }
    ]
}