{
    "origin": "Nantes",
    "destination": "Krak\u00f3w",
    "alternatives": [
        {
            "type": "rail",
            "legs": [
                {
                    "start": {
                        "name": "NANTES (France)",
                        "lat": 47.217504,
                        "lon": -1.541947
                    },
                    "end": {
                        "name": "BRUXELLES-MIDI (Belgium)",
                        "lat": 50.835554,
                        "lon": 4.336387
                    },
                    "time_s": 18000.0
                },
                {
                    "start": {
                        "name": "BRUXELLES-MIDI (Belgium)",
                        "lat": 50.835554,
                        "lon": 4.336387
                    },
                    "end": {
                        "name": "KOELN HBF (Germany)",
                        "lat": 50.943056,
                        "lon": 6.958613
                    },
                    "time_s": 6660.0
                },
                {
                    "start": {
                        "name": "KOELN HBF (Germany)",
                        "lat": 50.943056,
                        "lon": 6.958613
                    },
                    "end": {
                        "name": "BERLIN HBF (TIEF) (Germany)",
                        "lat": 52.525553,
                        "lon": 13.369441
                    },
                    "time_s": 15720.0
                },
                {
                    "start": {
                        "name": "BERLIN HBF (TIEF) (Germany)",
                        "lat": 52.525553,
                        "lon": 13.369441
                    },
                    "end": {
                        "name": "BERLIN HBF (Germany)",
                        "lat": 52.525553,
                        "lon": 13.369441
                    },
                    "time_s": 540.0
                },
                {
                    "start": {
                        "name": "BERLIN HBF (Germany)",
                        "lat": 52.525553,
                        "lon": 13.369441
                    },
                    "end": {
                        "name": "RZEPIN (Poland)",
                        "lat": 52.350003,
                        "lon": 14.815275
                    },
                    "time_s": 4920.0
                },
                {
                    "start": {
                        "name": "RZEPIN (Poland)",
                        "lat": 52.350003,
                        "lon": 14.815275
                    },
                    "end": {
                        "name": "KRAKOW GLOWNY (Poland)",
                        "lat": 50.068334,
                        "lon": 19.947504
                    },
                    "time_s": 30720.0
                }
            ],
            "total_duration_s": 84900.0,
            "total_distance_km": 1785.01201645348
        },
        {
            "type": "air",
            "legs": [
                {
                    "start": {
                        "name": "NTE"
                    },
                    "end": {
                        "name": "AMS"
                    },
                    "aircraft": "E90",
                    "distance": 733.267711574465
                },
                {
                    "start": {
                        "name": "AMS"
                    },
                    "end": {
                        "name": "KRK"
                    },
                    "aircraft": "E90",
                    "distance": 1073.596156575139
                }
            ],
            "total_duration_s": "PT23H",
            "total_distance_km": 1806.863868149604
        }
    ]
}