{
    "origin": "Nantes",
    "destination": "Liverpool",
    "alternatives": [
        {
            "type": "rail",
            "legs": [
                {
                    "start": {
                        "name": "NANTES (France)",
                        "lat": 47.217504,
                        "lon": -1.541947
                    },
                    "end": {
                        "name": "PARIS MONTPARNASSE 1 ET 2 (France)",
                        "lat": 48.839724,
                        "lon": 2.318615
                    },
                    "time_s": 7740.0
                },
                {
                    "start": {
                        "name": "PARIS MONTPARNASSE 1 ET 2 (France)",
                        "lat": 48.839724,
                        "lon": 2.318615
                    },
                    "end": {
                        "name": "PARIS NORD (France)",
                        "lat": 48.880275,
                        "lon": 2.355282
                    },
                    "time_s": 3000.0
                },
                {
                    "start": {
                        "name": "PARIS NORD (France)",
                        "lat": 48.880275,
                        "lon": 2.355282
                    },
                    "end": {
                        "name": "PARIS NORD (France)",
                        "lat": 48.880275,
                        "lon": 2.355282
                    },
                    "time_s": 2100.0
                },
                {
                    "start": {
                        "name": "PARIS NORD (France)",
                        "lat": 48.880275,
                        "lon": 2.355282
                    },
                    "end": {
                        "name": "LONDON ST PANCRAS INTL (United Kingdom)",
                        "lat": 51.530555,
                        "lon": -0.125274
                    },
                    "time_s": 4620.0
                },
                {
                    "start": {
                        "name": "LONDON ST PANCRAS INTL (United Kingdom)",
                        "lat": 51.530555,
                        "lon": -0.125274
                    },
                    "end": {
                        "name": "LONDON EUSTON (United Kingdom)",
                        "lat": 51.525836,
                        "lon": -0.133058
                    },
                    "time_s": 3600.0
                },
                {
                    "start": {
                        "name": "LONDON EUSTON (United Kingdom)",
                        "lat": 51.525836,
                        "lon": -0.133058
                    },
                    "end": {
                        "name": "CREWE (United Kingdom)",
                        "lat": 53.086669,
                        "lon": -2.431663
                    },
                    "time_s": 5700.0
                },
                {
                    "start": {
                        "name": "CREWE (United Kingdom)",
                        "lat": 53.086669,
                        "lon": -2.431663
                    },
                    "end": {
                        "name": "LIVERPOOL LIME STREET (United Kingdom)",
                        "lat": 53.404447,
                        "lon": -2.976391
                    },
                    "time_s": 2460.0
                }
            ],
            "total_duration_s": 32820.0,
            "total_distance_km": 972.6110724739357
        },
        {
            "type": "air",
            "legs": [
                {
                    "start": {
                        "name": "NTE"
                    },
                    "end": {
                        "name": "FRA"
                    },
                    "aircraft": "CR9",
                    "distance": 813.5276931944622
                },
                {
                    "start": {
                        "name": "FRA"
                    },
                    "end": {
                        "name": "LPL"
                    },
                    "aircraft": "CR9",
                    "distance": 867.3535342196461
                }
            ],
            "total_duration_s": "PT5H45M",
            "total_distance_km": 1680.8812274141083
        }
    ]
}