{
    "origin": "Naples",
    "destination": "Budapest",
    "alternatives": [
        {
            "type": "rail",
            "legs": [
                {
                    "start": {
                        "name": "NAPOLI CENTRALE (Italy)",
                        "lat": 40.85306,
                        "lon": 14.272776
                    },
                    "end": {
                        "name": "VENEZIA MESTRE (Italy)",
                        "lat": 45.481948,
                        "lon": 12.231667
                    },
                    "time_s": 18840.0
                },
                {
                    "start": {
                        "name": "VENEZIA MESTRE (Italy)",
                        "lat": 45.481948,
                        "lon": 12.231667
                    },
                    "end": {
                        "name": "VILLACH HBF (Austria)",
                        "lat": 46.618607,
                        "lon": 13.848611
                    },
                    "time_s": 11400.0
                },
                {
                    "start": {
                        "name": "VILLACH HBF (Austria)",
                        "lat": 46.618607,
                        "lon": 13.848611
                    },
                    "end": {
                        "name": "WIEN HBF (Austria)",
                        "lat": 48.185004,
                        "lon": 16.375829
                    },
                    "time_s": 15660.0
                },
                {
                    "start": {
                        "name": "WIEN HBF (Austria)",
                        "lat": 48.185004,
                        "lon": 16.375829
                    },
                    "end": {
                        "name": "BUDAPEST-KELENFOELD (Hungary)",
                        "lat": 47.464447,
                        "lon": 19.019997
                    },
                    "time_s": 8520.0
                }
            ],
            "total_duration_s": 57180.0,
            "total_distance_km": 1189.1348429538427
        },
        {
            "type": "air",
            "legs": [
                {
                    "start": {
                        "name": "NAP"
                    },
                    "end": {
                        "name": "OSL"
                    },
                    "aircraft": "73H",
                    "distance": 2158.1379206318193
                },
                {
                    "start": {
                        "name": "OSL"
                    },
                    "end": {
                        "name": "BUD"
                    },
                    "aircraft": "73H",
                    "distance": 1514.371003738939
                }
            ],
            "total_duration_s": "PT25H5M",
            "total_distance_km": 3672.508924370758
        }
    ]
}