{
    "origin": "Naples",
    "destination": "Cardiff",
    "alternatives": [
        {
            "type": "rail",
            "legs": [
                {
                    "start": {
                        "name": "NAPOLI CENTRALE (Italy)",
                        "lat": 40.85306,
                        "lon": 14.272776
                    },
                    "end": {
                        "name": "MILANO CENTRALE (Italy)",
                        "lat": 45.486388,
                        "lon": 9.204163
                    },
                    "time_s": 19500.0
                },
                {
                    "start": {
                        "name": "MILANO CENTRALE (Italy)",
                        "lat": 45.486388,
                        "lon": 9.204163
                    },
                    "end": {
                        "name": "BASEL SBB (Switzerland)",
                        "lat": 47.547498,
                        "lon": 7.58944
                    },
                    "time_s": 15120.0
                },
                {
                    "start": {
                        "name": "BASEL SBB (Switzerland)",
                        "lat": 47.547498,
                        "lon": 7.58944
                    },
                    "end": {
                        "name": "MULHOUSE VILLE (France)",
                        "lat": 47.742501,
                        "lon": 7.343054
                    },
                    "time_s": 1860.0
                },
                {
                    "start": {
                        "name": "MULHOUSE VILLE (France)",
                        "lat": 47.742501,
                        "lon": 7.343054
                    },
                    "end": {
                        "name": "STRASBOURG (France)",
                        "lat": 48.584997,
                        "lon": 7.734723
                    },
                    "time_s": 4200.0
                },
                {
                    "start": {
                        "name": "STRASBOURG (France)",
                        "lat": 48.584997,
                        "lon": 7.734723
                    },
                    "end": {
                        "name": "PARIS EST (France)",
                        "lat": 48.877497,
                        "lon": 2.358886
                    },
                    "time_s": 11400.0
                },
                {
                    "start": {
                        "name": "PARIS EST (France)",
                        "lat": 48.877497,
                        "lon": 2.358886
                    },
                    "end": {
                        "name": "PARIS NORD (France)",
                        "lat": 48.880275,
                        "lon": 2.355282
                    },
                    "time_s": 1800.0
                },
                {
                    "start": {
                        "name": "PARIS NORD (France)",
                        "lat": 48.880275,
                        "lon": 2.355282
                    },
                    "end": {
                        "name": "PARIS NORD (France)",
                        "lat": 48.880275,
                        "lon": 2.355282
                    },
                    "time_s": 2100.0
                },
                {
                    "start": {
                        "name": "PARIS NORD (France)",
                        "lat": 48.880275,
                        "lon": 2.355282
                    },
                    "end": {
                        "name": "LONDON ST PANCRAS INTL (United Kingdom)",
                        "lat": 51.530555,
                        "lon": -0.125274
                    },
                    "time_s": 4620.0
                },
                {
                    "start": {
                        "name": "LONDON ST PANCRAS INTL (United Kingdom)",
                        "lat": 51.530555,
                        "lon": -0.125274
                    },
                    "end": {
                        "name": "LONDON PADDINGTON (United Kingdom)",
                        "lat": 51.513889,
                        "lon": -0.175281
                    },
                    "time_s": 5700.0
                },
                {
                    "start": {
                        "name": "LONDON PADDINGTON (United Kingdom)",
                        "lat": 51.513889,
                        "lon": -0.175281
                    },
                    "end": {
                        "name": "CARDIFF CENTRAL (United Kingdom)",
                        "lat": 51.472782,
                        "lon": -3.176392
                    },
                    "time_s": 7140.0
                }
            ],
            "total_duration_s": 95820.0,
            "total_distance_km": 1996.8635278339386
        },
        {
            "type": "air",
            "legs": [
                {
                    "start": {
                        "name": "NAP"
                    },
                    "end": {
                        "name": "AMS"
                    },
                    "aircraft": "73H",
                    "distance": 1461.0889857703914
                },
                {
                    "start": {
                        "name": "AMS"
                    },
                    "end": {
                        "name": "CWL"
                    },
                    "aircraft": "E90",
                    "distance": 565.673671116523
                }
            ],
            "total_duration_s": "PT8H25M",
            "total_distance_km": 2026.7626568869146
        }
    ]
}