{
    "origin": "Nice",
    "destination": "Malaga",
    "alternatives": [
        {
            "type": "rail",
            "legs": [
                {
                    "start": {
                        "name": "NICE VILLE (France)",
                        "lat": 43.704448,
                        "lon": 7.261945
                    },
                    "end": {
                        "name": "LYON PART DIEU (France)",
                        "lat": 45.760281,
                        "lon": 4.858885
                    },
                    "time_s": 16560.0
                },
                {
                    "start": {
                        "name": "LYON PART DIEU (France)",
                        "lat": 45.760281,
                        "lon": 4.858885
                    },
                    "end": {
                        "name": "BARCELONA-SANTS (Spain)",
                        "lat": 41.379442,
                        "lon": 2.140556
                    },
                    "time_s": 17820.0
                },
                {
                    "start": {
                        "name": "BARCELONA-SANTS (Spain)",
                        "lat": 41.379442,
                        "lon": 2.140556
                    },
                    "end": {
                        "name": "MADRID-PUERTA DE ATOCHA (Spain)",
                        "lat": 40.406386,
                        "lon": -3.690836
                    },
                    "time_s": 11820.0
                },
                {
                    "start": {
                        "name": "MADRID-PUERTA DE ATOCHA (Spain)",
                        "lat": 40.406386,
                        "lon": -3.690836
                    },
                    "end": {
                        "name": "MALAGA MARIA ZAMBRANO (Spain)",
                        "lat": 36.711946,
                        "lon": -4.431943
                    },
                    "time_s": 10500.0
                }
            ],
            "total_duration_s": 100680.0,
            "total_distance_km": 1748.7944001374315
        },
        {
            "type": "air",
            "legs": [
                {
                    "start": {
                        "name": "NCE"
                    },
                    "end": {
                        "name": "ARN"
                    },
                    "aircraft": "73H",
                    "distance": 1919.9583617079697
                },
                {
                    "start": {
                        "name": "ARN"
                    },
                    "end": {
                        "name": "AGP"
                    },
                    "aircraft": "73H",
                    "distance": 3015.836489498653
                }
            ],
            "total_duration_s": "PT8H20M",
            "total_distance_km": 4935.794851206623
        }
    ]
}