{
    "origin": "Nuremberg",
    "destination": "Southampton",
    "alternatives": [
        {
            "type": "rail",
            "legs": [
                {
                    "start": {
                        "name": "NUERNBERG HBF (Germany)",
                        "lat": 49.445552,
                        "lon": 11.083052
                    },
                    "end": {
                        "name": "FRANKFURT(M) FLUGHAFEN FERNBF (Germany)",
                        "lat": 50.053052,
                        "lon": 8.57028
                    },
                    "time_s": 8760.0
                },
                {
                    "start": {
                        "name": "FRANKFURT(M) FLUGHAFEN FERNBF (Germany)",
                        "lat": 50.053052,
                        "lon": 8.57028
                    },
                    "end": {
                        "name": "BRUXELLES-MIDI (Belgium)",
                        "lat": 50.835554,
                        "lon": 4.336387
                    },
                    "time_s": 10380.0
                },
                {
                    "start": {
                        "name": "BRUXELLES-MIDI (Belgium)",
                        "lat": 50.835554,
                        "lon": 4.336387
                    },
                    "end": {
                        "name": "BRUXELLES-MIDI (Belgium)",
                        "lat": 50.835554,
                        "lon": 4.336387
                    },
                    "time_s": 2100.0
                },
                {
                    "start": {
                        "name": "BRUXELLES-MIDI (Belgium)",
                        "lat": 50.835554,
                        "lon": 4.336387
                    },
                    "end": {
                        "name": "LONDON ST PANCRAS INTL (United Kingdom)",
                        "lat": 51.530555,
                        "lon": -0.125274
                    },
                    "time_s": 3660.0
                },
                {
                    "start": {
                        "name": "LONDON ST PANCRAS INTL (United Kingdom)",
                        "lat": 51.530555,
                        "lon": -0.125274
                    },
                    "end": {
                        "name": "LONDON WATERLOO (United Kingdom)",
                        "lat": 51.499444,
                        "lon": -0.109722
                    },
                    "time_s": 4380.0
                },
                {
                    "start": {
                        "name": "LONDON WATERLOO (United Kingdom)",
                        "lat": 51.499444,
                        "lon": -0.109722
                    },
                    "end": {
                        "name": "SOUTHAMPTON AIRPORT (United Kingdom)",
                        "lat": 50.948612,
                        "lon": -1.362225
                    },
                    "time_s": 5340.0
                }
            ],
            "total_duration_s": 41640.0,
            "total_distance_km": 935.4618799843233
        },
        {
            "type": "air",
            "legs": [
                {
                    "start": {
                        "name": "NUE"
                    },
                    "end": {
                        "name": "AMS"
                    },
                    "aircraft": "E75",
                    "distance": 541.5968895724073
                },
                {
                    "start": {
                        "name": "AMS"
                    },
                    "end": {
                        "name": "NCL"
                    },
                    "aircraft": "E90",
                    "distance": 522.0655873129657
                },
                {
                    "start": {
                        "name": "NCL"
                    },
                    "end": {
                        "name": "SOU"
                    },
                    "aircraft": "ER4",
                    "distance": 455.02736850134846
                }
            ],
            "total_duration_s": "PT10H15M",
            "total_distance_km": 1518.6898453867216
        }
    ]
}