{
    "origin": "Nuremberg",
    "destination": "Milan",
    "alternatives": [
        {
            "type": "rail",
            "legs": [
                {
                    "start": {
                        "name": "NUERNBERG HBF (Germany)",
                        "lat": 49.445552,
                        "lon": 11.083052
                    },
                    "end": {
                        "name": "MUENCHEN HBF (Germany)",
                        "lat": 48.140274,
                        "lon": 11.55833
                    },
                    "time_s": 4560.0
                },
                {
                    "start": {
                        "name": "MUENCHEN HBF (Germany)",
                        "lat": 48.140274,
                        "lon": 11.55833
                    },
                    "end": {
                        "name": "MUENCHEN HBF GL.27-36 (Germany)",
                        "lat": 48.141667,
                        "lon": 11.556667
                    },
                    "time_s": 600.0
                },
                {
                    "start": {
                        "name": "MUENCHEN HBF GL.27-36 (Germany)",
                        "lat": 48.141667,
                        "lon": 11.556667
                    },
                    "end": {
                        "name": "ZUERICH HB (Switzerland)",
                        "lat": 47.37806,
                        "lon": 8.540274
                    },
                    "time_s": 12720.0
                },
                {
                    "start": {
                        "name": "ZUERICH HB (Switzerland)",
                        "lat": 47.37806,
                        "lon": 8.540274
                    },
                    "end": {
                        "name": "MILANO CENTRALE (Italy)",
                        "lat": 45.486388,
                        "lon": 9.204163
                    },
                    "time_s": 11820.0
                }
            ],
            "total_duration_s": 33720.0,
            "total_distance_km": 606.7746835194866
        },
        {
            "type": "air",
            "legs": [
                {
                    "start": {
                        "name": "NUE"
                    },
                    "end": {
                        "name": "BEG"
                    },
                    "aircraft": "319",
                    "distance": 869.598414511658
                },
                {
                    "start": {
                        "name": "BEG"
                    },
                    "end": {
                        "name": "MXP"
                    },
                    "aircraft": "319",
                    "distance": 910.6802525030171
                }
            ],
            "total_duration_s": "PT23H35M",
            "total_distance_km": 1780.2786670146752
        }
    ]
}