{
    "origin": "Nuremberg",
    "destination": "Valencia",
    "alternatives": [
        {
            "type": "rail",
            "legs": [
                {
                    "start": {
                        "name": "NUERNBERG HBF (Germany)",
                        "lat": 49.445552,
                        "lon": 11.083052
                    },
                    "end": {
                        "name": "KARLSRUHE HBF (Germany)",
                        "lat": 48.993611,
                        "lon": 8.402226
                    },
                    "time_s": 11520.0
                },
                {
                    "start": {
                        "name": "KARLSRUHE HBF (Germany)",
                        "lat": 48.993611,
                        "lon": 8.402226
                    },
                    "end": {
                        "name": "PARIS EST (France)",
                        "lat": 48.877497,
                        "lon": 2.358886
                    },
                    "time_s": 9360.0
                },
                {
                    "start": {
                        "name": "PARIS EST (France)",
                        "lat": 48.877497,
                        "lon": 2.358886
                    },
                    "end": {
                        "name": "PARIS AUSTERLITZ (France)",
                        "lat": 48.841387,
                        "lon": 2.366392
                    },
                    "time_s": 2400.0
                },
                {
                    "start": {
                        "name": "PARIS AUSTERLITZ (France)",
                        "lat": 48.841387,
                        "lon": 2.366392
                    },
                    "end": {
                        "name": "NARBONNE (France)",
                        "lat": 43.190552,
                        "lon": 3.005552
                    },
                    "time_s": 34140.0
                },
                {
                    "start": {
                        "name": "NARBONNE (France)",
                        "lat": 43.190552,
                        "lon": 3.005552
                    },
                    "end": {
                        "name": "BARCELONA-SANTS (Spain)",
                        "lat": 41.379442,
                        "lon": 2.140556
                    },
                    "time_s": 7260.0
                },
                {
                    "start": {
                        "name": "BARCELONA-SANTS (Spain)",
                        "lat": 41.379442,
                        "lon": 2.140556
                    },
                    "end": {
                        "name": "VALENCIA-ESTACIO DEL NORD (Spain)",
                        "lat": 39.465,
                        "lon": -0.377502
                    },
                    "time_s": 12900.0
                }
            ],
            "total_duration_s": 104040.0,
            "total_distance_km": 1791.7145712986444
        },
        {
            "type": "air",
            "legs": [
                {
                    "start": {
                        "name": "NUE"
                    },
                    "end": {
                        "name": "AMS"
                    },
                    "aircraft": "E75",
                    "distance": 541.5968895724073
                },
                {
                    "start": {
                        "name": "AMS"
                    },
                    "end": {
                        "name": "VLC"
                    },
                    "aircraft": "73H",
                    "distance": 1481.1160342587075
                }
            ],
            "total_duration_s": "PT21H",
            "total_distance_km": 2022.712923831115
        }
    ]
}