{
    "origin": "Pisa",
    "destination": "Belgrade",
    "alternatives": [
        {
            "type": "rail",
            "legs": [
                {
                    "start": {
                        "name": "PISA CENTRALE (Italy)",
                        "lat": 43.708052,
                        "lon": 10.398056
                    },
                    "end": {
                        "name": "FIRENZE S.M.N. (Italy)",
                        "lat": 43.776667,
                        "lon": 11.247501
                    },
                    "time_s": 3660.0
                },
                {
                    "start": {
                        "name": "FIRENZE S.M.N. (Italy)",
                        "lat": 43.776667,
                        "lon": 11.247501
                    },
                    "end": {
                        "name": "TORINO PORTA SUSA (Italy)",
                        "lat": 45.07417,
                        "lon": 7.666945
                    },
                    "time_s": 11520.0
                },
                {
                    "start": {
                        "name": "TORINO PORTA SUSA (Italy)",
                        "lat": 45.07417,
                        "lon": 7.666945
                    },
                    "end": {
                        "name": "PARIS GARE DE LYON (France)",
                        "lat": 48.845001,
                        "lon": 2.373611
                    },
                    "time_s": 20460.0
                },
                {
                    "start": {
                        "name": "PARIS GARE DE LYON (France)",
                        "lat": 48.845001,
                        "lon": 2.373611
                    },
                    "end": {
                        "name": "PARIS NORD (France)",
                        "lat": 48.880275,
                        "lon": 2.355282
                    },
                    "time_s": 2400.0
                },
                {
                    "start": {
                        "name": "PARIS NORD (France)",
                        "lat": 48.880275,
                        "lon": 2.355282
                    },
                    "end": {
                        "name": "BRUXELLES-MIDI (Belgium)",
                        "lat": 50.835554,
                        "lon": 4.336387
                    },
                    "time_s": 5520.0
                },
                {
                    "start": {
                        "name": "BRUXELLES-MIDI (Belgium)",
                        "lat": 50.835554,
                        "lon": 4.336387
                    },
                    "end": {
                        "name": "GRAMMONT (Belgium)",
                        "lat": 50.771111,
                        "lon": 3.87222
                    },
                    "time_s": 2460.0
                }
            ],
            "total_duration_s": 72120.0,
            "total_distance_km": 1265.0856535887588
        },
        {
            "type": "air",
            "legs": [
                {
                    "start": {
                        "name": "PSA"
                    },
                    "end": {
                        "name": "AMS"
                    },
                    "aircraft": "73G",
                    "distance": 1045.7127477262484
                },
                {
                    "start": {
                        "name": "AMS"
                    },
                    "end": {
                        "name": "BEG"
                    },
                    "aircraft": "E90",
                    "distance": 1410.2168665429149
                }
            ],
            "total_duration_s": "PT13H50M",
            "total_distance_km": 2455.9296142691633
        }
    ]
}