{
    "origin": "Pisa",
    "destination": "Barcelona",
    "alternatives": [
        {
            "type": "rail",
            "legs": [
                {
                    "start": {
                        "name": "PISA CENTRALE (Italy)",
                        "lat": 43.708052,
                        "lon": 10.398056
                    },
                    "end": {
                        "name": "FIRENZE S.M.N. (Italy)",
                        "lat": 43.776667,
                        "lon": 11.247501
                    },
                    "time_s": 3660.0
                },
                {
                    "start": {
                        "name": "FIRENZE S.M.N. (Italy)",
                        "lat": 43.776667,
                        "lon": 11.247501
                    },
                    "end": {
                        "name": "TORINO PORTA SUSA (Italy)",
                        "lat": 45.07417,
                        "lon": 7.666945
                    },
                    "time_s": 11520.0
                },
                {
                    "start": {
                        "name": "TORINO PORTA SUSA (Italy)",
                        "lat": 45.07417,
                        "lon": 7.666945
                    },
                    "end": {
                        "name": "CHAMBERY CHALLES LES EAUX (France)",
                        "lat": 45.570554,
                        "lon": 5.919999
                    },
                    "time_s": 9420.0
                },
                {
                    "start": {
                        "name": "CHAMBERY CHALLES LES EAUX (France)",
                        "lat": 45.570554,
                        "lon": 5.919999
                    },
                    "end": {
                        "name": "LYON PART DIEU (France)",
                        "lat": 45.760281,
                        "lon": 4.858885
                    },
                    "time_s": 5760.0
                },
                {
                    "start": {
                        "name": "LYON PART DIEU (France)",
                        "lat": 45.760281,
                        "lon": 4.858885
                    },
                    "end": {
                        "name": "NARBONNE (France)",
                        "lat": 43.190552,
                        "lon": 3.005552
                    },
                    "time_s": 11340.0
                },
                {
                    "start": {
                        "name": "NARBONNE (France)",
                        "lat": 43.190552,
                        "lon": 3.005552
                    },
                    "end": {
                        "name": "BARCELONA-SANTS (Spain)",
                        "lat": 41.379442,
                        "lon": 2.140556
                    },
                    "time_s": 7260.0
                }
            ],
            "total_duration_s": 86520.0,
            "total_distance_km": 1154.8106528105895
        },
        {
            "type": "air",
            "legs": [
                {
                    "start": {
                        "name": "PSA"
                    },
                    "end": {
                        "name": "AMS"
                    },
                    "aircraft": "73G",
                    "distance": 1045.7127477262484
                },
                {
                    "start": {
                        "name": "AMS"
                    },
                    "end": {
                        "name": "BCN"
                    },
                    "aircraft": "73H",
                    "distance": 1241.1379585350408
                }
            ],
            "total_duration_s": "PT14H30M",
            "total_distance_km": 2286.850706261289
        }
    ]
}