{
    "origin": "Prague",
    "destination": "Malaga",
    "alternatives": [
        {
            "type": "rail",
            "legs": [
                {
                    "start": {
                        "name": "PRAGUE HLAVNI NADRAZI (Czech Republic)",
                        "lat": 50.081386,
                        "lon": 14.435274
                    },
                    "end": {
                        "name": "DRESDEN HBF (Germany)",
                        "lat": 51.040553,
                        "lon": 13.73194
                    },
                    "time_s": 8760.0
                },
                {
                    "start": {
                        "name": "DRESDEN HBF (Germany)",
                        "lat": 51.040553,
                        "lon": 13.73194
                    },
                    "end": {
                        "name": "FRANKFURT(MAIN)HBF (Germany)",
                        "lat": 50.107221,
                        "lon": 8.663893
                    },
                    "time_s": 15840.0
                },
                {
                    "start": {
                        "name": "FRANKFURT(MAIN)HBF (Germany)",
                        "lat": 50.107221,
                        "lon": 8.663893
                    },
                    "end": {
                        "name": "PARIS EST (France)",
                        "lat": 48.877497,
                        "lon": 2.358886
                    },
                    "time_s": 13500.0
                },
                {
                    "start": {
                        "name": "PARIS EST (France)",
                        "lat": 48.877497,
                        "lon": 2.358886
                    },
                    "end": {
                        "name": "PARIS AUSTERLITZ (France)",
                        "lat": 48.841387,
                        "lon": 2.366392
                    },
                    "time_s": 2400.0
                },
                {
                    "start": {
                        "name": "PARIS AUSTERLITZ (France)",
                        "lat": 48.841387,
                        "lon": 2.366392
                    },
                    "end": {
                        "name": "NARBONNE (France)",
                        "lat": 43.190552,
                        "lon": 3.005552
                    },
                    "time_s": 34140.0
                },
                {
                    "start": {
                        "name": "NARBONNE (France)",
                        "lat": 43.190552,
                        "lon": 3.005552
                    },
                    "end": {
                        "name": "MADRID-PUERTA DE ATOCHA (Spain)",
                        "lat": 40.406386,
                        "lon": -3.690836
                    },
                    "time_s": 18720.0
                },
                {
                    "start": {
                        "name": "MADRID-PUERTA DE ATOCHA (Spain)",
                        "lat": 40.406386,
                        "lon": -3.690836
                    },
                    "end": {
                        "name": "MALAGA MARIA ZAMBRANO (Spain)",
                        "lat": 36.711946,
                        "lon": -4.431943
                    },
                    "time_s": 10620.0
                }
            ],
            "total_duration_s": 126420.0,
            "total_distance_km": 2650.970776333142
        },
        {
            "type": "air",
            "legs": [
                {
                    "start": {
                        "name": "PRG"
                    },
                    "end": {
                        "name": "AGP"
                    },
                    "aircraft": "73J",
                    "distance": 2116.1494106901787
                }
            ],
            "total_duration_s": "PT3H25M",
            "total_distance_km": 2116.1494106901787
        }
    ]
}