{
    "origin": "Rome",
    "destination": "Hanover",
    "alternatives": [
        {
            "type": "rail",
            "legs": [
                {
                    "start": {
                        "name": "ROMA TERMINI (Italy)",
                        "lat": 41.900555,
                        "lon": 12.501667
                    },
                    "end": {
                        "name": "BOLOGNA CENTRALE (Italy)",
                        "lat": 44.506393,
                        "lon": 11.341942
                    },
                    "time_s": 8580.0
                },
                {
                    "start": {
                        "name": "BOLOGNA CENTRALE (Italy)",
                        "lat": 44.506393,
                        "lon": 11.341942
                    },
                    "end": {
                        "name": "MUENCHEN HBF (Germany)",
                        "lat": 48.140274,
                        "lon": 11.55833
                    },
                    "time_s": 23820.0
                },
                {
                    "start": {
                        "name": "MUENCHEN HBF (Germany)",
                        "lat": 48.140274,
                        "lon": 11.55833
                    },
                    "end": {
                        "name": "HANNOVER HBF (Germany)",
                        "lat": 52.376665,
                        "lon": 9.741107
                    },
                    "time_s": 21960.0
                },
                {
                    "start": {
                        "name": "HANNOVER HBF (Germany)",
                        "lat": 52.376665,
                        "lon": 9.741107
                    },
                    "end": {
                        "name": "HANNOVER MESSE/LAATZEN (Germany)",
                        "lat": 52.316941,
                        "lon": 9.792777
                    },
                    "time_s": 420.0
                }
            ],
            "total_duration_s": 58560.0,
            "total_distance_km": 1204.9513412659624
        },
        {
            "type": "air",
            "legs": [
                {
                    "start": {
                        "name": "FCO"
                    },
                    "end": {
                        "name": "CDG"
                    },
                    "aircraft": "320",
                    "distance": 1100.6955098131953
                },
                {
                    "start": {
                        "name": "CDG"
                    },
                    "end": {
                        "name": "HAJ"
                    },
                    "aircraft": "E70",
                    "distance": 631.2943795950838
                }
            ],
            "total_duration_s": "PT5H15M",
            "total_distance_km": 1731.989889408279
        }
    ]
}