{
    "origin": "Stuttgart",
    "destination": "Southampton",
    "alternatives": [
        {
            "type": "rail",
            "legs": [
                {
                    "start": {
                        "name": "STUTTGART HBF (Germany)",
                        "lat": 48.784171,
                        "lon": 9.181663
                    },
                    "end": {
                        "name": "MANNHEIM HBF (Germany)",
                        "lat": 49.479442,
                        "lon": 8.46889
                    },
                    "time_s": 2280.0
                },
                {
                    "start": {
                        "name": "MANNHEIM HBF (Germany)",
                        "lat": 49.479442,
                        "lon": 8.46889
                    },
                    "end": {
                        "name": "PARIS EST (France)",
                        "lat": 48.877497,
                        "lon": 2.358886
                    },
                    "time_s": 11520.0
                },
                {
                    "start": {
                        "name": "PARIS EST (France)",
                        "lat": 48.877497,
                        "lon": 2.358886
                    },
                    "end": {
                        "name": "PARIS NORD (France)",
                        "lat": 48.880275,
                        "lon": 2.355282
                    },
                    "time_s": 1800.0
                },
                {
                    "start": {
                        "name": "PARIS NORD (France)",
                        "lat": 48.880275,
                        "lon": 2.355282
                    },
                    "end": {
                        "name": "PARIS NORD (France)",
                        "lat": 48.880275,
                        "lon": 2.355282
                    },
                    "time_s": 2100.0
                },
                {
                    "start": {
                        "name": "PARIS NORD (France)",
                        "lat": 48.880275,
                        "lon": 2.355282
                    },
                    "end": {
                        "name": "LONDON ST PANCRAS INTL (United Kingdom)",
                        "lat": 51.530555,
                        "lon": -0.125274
                    },
                    "time_s": 4620.0
                },
                {
                    "start": {
                        "name": "LONDON ST PANCRAS INTL (United Kingdom)",
                        "lat": 51.530555,
                        "lon": -0.125274
                    },
                    "end": {
                        "name": "LONDON WATERLOO (United Kingdom)",
                        "lat": 51.499444,
                        "lon": -0.109722
                    },
                    "time_s": 4380.0
                },
                {
                    "start": {
                        "name": "LONDON WATERLOO (United Kingdom)",
                        "lat": 51.499444,
                        "lon": -0.109722
                    },
                    "end": {
                        "name": "BASINGSTOKE (United Kingdom)",
                        "lat": 51.265832,
                        "lon": -1.08694
                    },
                    "time_s": 3060.0
                },
                {
                    "start": {
                        "name": "BASINGSTOKE (United Kingdom)",
                        "lat": 51.265832,
                        "lon": -1.08694
                    },
                    "end": {
                        "name": "SOUTHAMPTON AIRPORT (United Kingdom)",
                        "lat": 50.948612,
                        "lon": -1.362225
                    },
                    "time_s": 1380.0
                }
            ],
            "total_duration_s": 34980.0,
            "total_distance_km": 1002.4096776318447
        },
        {
            "type": "air",
            "legs": [
                {
                    "start": {
                        "name": "STR"
                    },
                    "end": {
                        "name": "AMS"
                    },
                    "aircraft": "E75",
                    "distance": 511.0070666852393
                },
                {
                    "start": {
                        "name": "AMS"
                    },
                    "end": {
                        "name": "GLA"
                    },
                    "aircraft": "73J",
                    "distance": 717.9574758733316
                },
                {
                    "start": {
                        "name": "GLA"
                    },
                    "end": {
                        "name": "SOU"
                    },
                    "aircraft": "ER4",
                    "distance": 583.8602596910158
                }
            ],
            "total_duration_s": "PT9H15M",
            "total_distance_km": 1812.8248022495868
        }
    ]
}