{
    "origin": "Stuttgart",
    "destination": "Warsaw",
    "alternatives": [
        {
            "type": "rail",
            "legs": [
                {
                    "start": {
                        "name": "STUTTGART HBF (Germany)",
                        "lat": 48.784171,
                        "lon": 9.181663
                    },
                    "end": {
                        "name": "BERLIN HBF (TIEF) (Germany)",
                        "lat": 52.525553,
                        "lon": 13.369441
                    },
                    "time_s": 20280.0
                },
                {
                    "start": {
                        "name": "BERLIN HBF (TIEF) (Germany)",
                        "lat": 52.525553,
                        "lon": 13.369441
                    },
                    "end": {
                        "name": "BERLIN HBF (Germany)",
                        "lat": 52.525553,
                        "lon": 13.369441
                    },
                    "time_s": 540.0
                },
                {
                    "start": {
                        "name": "BERLIN HBF (Germany)",
                        "lat": 52.525553,
                        "lon": 13.369441
                    },
                    "end": {
                        "name": "RZEPIN (Poland)",
                        "lat": 52.350003,
                        "lon": 14.815275
                    },
                    "time_s": 4920.0
                },
                {
                    "start": {
                        "name": "RZEPIN (Poland)",
                        "lat": 52.350003,
                        "lon": 14.815275
                    },
                    "end": {
                        "name": "WARSZAWA GDANSKA (Poland)",
                        "lat": 52.258888,
                        "lon": 20.99472
                    },
                    "time_s": 20940.0
                },
                {
                    "start": {
                        "name": "WARSZAWA GDANSKA (Poland)",
                        "lat": 52.258888,
                        "lon": 20.99472
                    },
                    "end": {
                        "name": "WARSZAWA ZACHODNIA P8 (Poland)",
                        "lat": 52.2225,
                        "lon": 20.961388
                    },
                    "time_s": 600.0
                }
            ],
            "total_duration_s": 64740.0,
            "total_distance_km": 1034.6595933848241
        },
        {
            "type": "air",
            "legs": [
                {
                    "start": {
                        "name": "STR"
                    },
                    "end": {
                        "name": "WAW"
                    },
                    "aircraft": "E75",
                    "distance": 915.9669080610397
                }
            ],
            "total_duration_s": "PT1H45M",
            "total_distance_km": 915.9669080610397
        }
    ]
}