{
    "origin": "Amsterdam",
    "destination": "Stavanger",
    "alternatives": [
        {
            "type": "rail",
            "legs": [
                {
                    "start": {
                        "name": "AMSTERDAM CENTRAAL (Netherlands)",
                        "lat": 52.378607,
                        "lon": 4.900829
                    },
                    "end": {
                        "name": "OSNABRUECK HBF (Germany)",
                        "lat": 52.272777,
                        "lon": 8.06167
                    },
                    "time_s": 10560.0
                },
                {
                    "start": {
                        "name": "OSNABRUECK HBF (Germany)",
                        "lat": 52.272777,
                        "lon": 8.06167
                    },
                    "end": {
                        "name": "HAMBURG HBF (Germany)",
                        "lat": 53.552778,
                        "lon": 10.006945
                    },
                    "time_s": 6660.0
                },
                {
                    "start": {
                        "name": "HAMBURG HBF (Germany)",
                        "lat": 53.552778,
                        "lon": 10.006945
                    },
                    "end": {
                        "name": "Norrkoping C (Sweden)",
                        "lat": 58.596391,
                        "lon": 16.183334
                    },
                    "time_s": 46080.0
                },
                {
                    "start": {
                        "name": "Norrkoping C (Sweden)",
                        "lat": 58.596391,
                        "lon": 16.183334
                    },
                    "end": {
                        "name": "Katrineholm C (Sweden)",
                        "lat": 58.996393,
                        "lon": 16.208054
                    },
                    "time_s": 1500.0
                },
                {
                    "start": {
                        "name": "Katrineholm C (Sweden)",
                        "lat": 58.996393,
                        "lon": 16.208054
                    },
                    "end": {
                        "name": "OSLO S (Norway)",
                        "lat": 59.910282,
                        "lon": 10.755279
                    },
                    "time_s": 17580.0
                },
                {
                    "start": {
                        "name": "OSLO S (Norway)",
                        "lat": 59.910282,
                        "lon": 10.755279
                    },
                    "end": {
                        "name": "STAVANGER (Norway)",
                        "lat": 58.966387,
                        "lon": 5.732781
                    },
                    "time_s": 32100.0
                }
            ],
            "total_duration_s": 137400.0,
            "total_distance_km": 1758.3708484148883
        },
        {
            "type": "air",
            "legs": [
                {
                    "start": {
                        "name": "AMS"
                    },
                    "end": {
                        "name": "SVG"
                    },
                    "aircraft": "E75",
                    "distance": 732.3849603414506
                }
            ],
            "total_duration_s": "PT1H25M",
            "total_distance_km": 732.3849603414506
        }
    ]
}