{
    "origin": "Amsterdam",
    "destination": "Bordeaux",
    "alternatives": [
        {
            "type": "rail",
            "legs": [
                {
                    "start": {
                        "name": "AMSTERDAM CENTRAAL (Netherlands)",
                        "lat": 52.378607,
                        "lon": 4.900829
                    },
                    "end": {
                        "name": "BRUXELLES-MIDI (Belgium)",
                        "lat": 50.835554,
                        "lon": 4.336387
                    },
                    "time_s": 6780.0
                },
                {
                    "start": {
                        "name": "BRUXELLES-MIDI (Belgium)",
                        "lat": 50.835554,
                        "lon": 4.336387
                    },
                    "end": {
                        "name": "PARIS NORD (France)",
                        "lat": 48.880275,
                        "lon": 2.355282
                    },
                    "time_s": 4920.0
                },
                {
                    "start": {
                        "name": "PARIS NORD (France)",
                        "lat": 48.880275,
                        "lon": 2.355282
                    },
                    "end": {
                        "name": "PARIS MONTPARNASSE 1 ET 2 (France)",
                        "lat": 48.839724,
                        "lon": 2.318615
                    },
                    "time_s": 3000.0
                },
                {
                    "start": {
                        "name": "PARIS MONTPARNASSE 1 ET 2 (France)",
                        "lat": 48.839724,
                        "lon": 2.318615
                    },
                    "end": {
                        "name": "BORDEAUX ST JEAN (France)",
                        "lat": 44.825834,
                        "lon": -0.556387
                    },
                    "time_s": 7380.0
                }
            ],
            "total_duration_s": 25140.0,
            "total_distance_km": 937.8030507307149
        },
        {
            "type": "air",
            "legs": [
                {
                    "start": {
                        "name": "AMS"
                    },
                    "end": {
                        "name": "BOD"
                    },
                    "aircraft": "E90",
                    "distance": 923.6933288206424
                }
            ],
            "total_duration_s": "PT1H40M",
            "total_distance_km": 923.6933288206424
        }
    ]
}