{
    "origin": "Amsterdam",
    "destination": "Rome",
    "alternatives": [
        {
            "type": "rail",
            "legs": [
                {
                    "start": {
                        "name": "AMSTERDAM CENTRAAL (Netherlands)",
                        "lat": 52.378607,
                        "lon": 4.900829
                    },
                    "end": {
                        "name": "PARIS NORD (France)",
                        "lat": 48.880275,
                        "lon": 2.355282
                    },
                    "time_s": 12180.0
                },
                {
                    "start": {
                        "name": "PARIS NORD (France)",
                        "lat": 48.880275,
                        "lon": 2.355282
                    },
                    "end": {
                        "name": "PARIS GARE DE LYON (France)",
                        "lat": 48.845001,
                        "lon": 2.373611
                    },
                    "time_s": 2400.0
                },
                {
                    "start": {
                        "name": "PARIS GARE DE LYON (France)",
                        "lat": 48.845001,
                        "lon": 2.373611
                    },
                    "end": {
                        "name": "LAUSANNE (Switzerland)",
                        "lat": 46.516669,
                        "lon": 6.629167
                    },
                    "time_s": 13320.0
                },
                {
                    "start": {
                        "name": "LAUSANNE (Switzerland)",
                        "lat": 46.516669,
                        "lon": 6.629167
                    },
                    "end": {
                        "name": "BRIG (Switzerland)",
                        "lat": 46.319446,
                        "lon": 7.988057
                    },
                    "time_s": 6480.0
                },
                {
                    "start": {
                        "name": "BRIG (Switzerland)",
                        "lat": 46.319446,
                        "lon": 7.988057
                    },
                    "end": {
                        "name": "DOMODOSSOLA (Italy)",
                        "lat": 46.115274,
                        "lon": 8.296666
                    },
                    "time_s": 1920.0
                },
                {
                    "start": {
                        "name": "DOMODOSSOLA (Italy)",
                        "lat": 46.115274,
                        "lon": 8.296666
                    },
                    "end": {
                        "name": "MILANO CENTRALE (Italy)",
                        "lat": 45.486388,
                        "lon": 9.204163
                    },
                    "time_s": 6060.0
                },
                {
                    "start": {
                        "name": "MILANO CENTRALE (Italy)",
                        "lat": 45.486388,
                        "lon": 9.204163
                    },
                    "end": {
                        "name": "ROMA TERMINI (Italy)",
                        "lat": 41.900555,
                        "lon": 12.501667
                    },
                    "time_s": 14040.0
                }
            ],
            "total_duration_s": 77640.0,
            "total_distance_km": 1560.1356047155305
        },
        {
            "type": "air",
            "legs": [
                {
                    "start": {
                        "name": "AMS"
                    },
                    "end": {
                        "name": "FCO"
                    },
                    "aircraft": "320",
                    "distance": 1296.8225596176699
                }
            ],
            "total_duration_s": "PT2H15M",
            "total_distance_km": 1296.8225596176699
        }
    ]
}