{
    "origin": "Bergen",
    "destination": "Nantes",
    "alternatives": [
        {
            "type": "rail",
            "legs": [
                {
                    "start": {
                        "name": "MONS (Belgium)",
                        "lat": 50.453612,
                        "lon": 3.942498
                    },
                    "end": {
                        "name": "TOURNAI (Belgium)",
                        "lat": 50.613053,
                        "lon": 3.396664
                    },
                    "time_s": 1740.0
                },
                {
                    "start": {
                        "name": "TOURNAI (Belgium)",
                        "lat": 50.613053,
                        "lon": 3.396664
                    },
                    "end": {
                        "name": "LILLE FLANDRES (France)",
                        "lat": 50.636389,
                        "lon": 3.070275
                    },
                    "time_s": 1860.0
                },
                {
                    "start": {
                        "name": "LILLE FLANDRES (France)",
                        "lat": 50.636389,
                        "lon": 3.070275
                    },
                    "end": {
                        "name": "PARIS NORD (France)",
                        "lat": 48.880275,
                        "lon": 2.355282
                    },
                    "time_s": 3720.0
                },
                {
                    "start": {
                        "name": "PARIS NORD (France)",
                        "lat": 48.880275,
                        "lon": 2.355282
                    },
                    "end": {
                        "name": "PARIS MONTPARNASSE 1 ET 2 (France)",
                        "lat": 48.839724,
                        "lon": 2.318615
                    },
                    "time_s": 3000.0
                },
                {
                    "start": {
                        "name": "PARIS MONTPARNASSE 1 ET 2 (France)",
                        "lat": 48.839724,
                        "lon": 2.318615
                    },
                    "end": {
                        "name": "NANTES (France)",
                        "lat": 47.217504,
                        "lon": -1.541947
                    },
                    "time_s": 8580.0
                }
            ],
            "total_duration_s": 22320.0,
            "total_distance_km": 611.7690893441529
        },
        {
            "type": "air",
            "legs": [
                {
                    "start": {
                        "name": "BGO"
                    },
                    "end": {
                        "name": "FRA"
                    },
                    "aircraft": "32N",
                    "distance": 1160.1912891965585
                },
                {
                    "start": {
                        "name": "FRA"
                    },
                    "end": {
                        "name": "NTE"
                    },
                    "aircraft": "CR9",
                    "distance": 813.5276931944622
                }
            ],
            "total_duration_s": "PT5H30M",
            "total_distance_km": 1973.7189823910207
        }
    ]
}