{
    "origin": "Bergen",
    "destination": "Lyon",
    "alternatives": [
        {
            "type": "rail",
            "legs": [
                {
                    "start": {
                        "name": "MONS (Belgium)",
                        "lat": 50.453612,
                        "lon": 3.942498
                    },
                    "end": {
                        "name": "ATH (Belgium)",
                        "lat": 50.626663,
                        "lon": 3.777222
                    },
                    "time_s": 1380.0
                },
                {
                    "start": {
                        "name": "ATH (Belgium)",
                        "lat": 50.626663,
                        "lon": 3.777222
                    },
                    "end": {
                        "name": "BRUXELLES-MIDI (Belgium)",
                        "lat": 50.835554,
                        "lon": 4.336387
                    },
                    "time_s": 2340.0
                },
                {
                    "start": {
                        "name": "BRUXELLES-MIDI (Belgium)",
                        "lat": 50.835554,
                        "lon": 4.336387
                    },
                    "end": {
                        "name": "PARIS NORD (France)",
                        "lat": 48.880275,
                        "lon": 2.355282
                    },
                    "time_s": 4920.0
                },
                {
                    "start": {
                        "name": "PARIS NORD (France)",
                        "lat": 48.880275,
                        "lon": 2.355282
                    },
                    "end": {
                        "name": "PARIS GARE DE LYON (France)",
                        "lat": 48.845001,
                        "lon": 2.373611
                    },
                    "time_s": 2400.0
                },
                {
                    "start": {
                        "name": "PARIS GARE DE LYON (France)",
                        "lat": 48.845001,
                        "lon": 2.373611
                    },
                    "end": {
                        "name": "LYON PART DIEU (France)",
                        "lat": 45.760281,
                        "lon": 4.858885
                    },
                    "time_s": 7080.0
                }
            ],
            "total_duration_s": 21120.0,
            "total_distance_km": 722.8292535583129
        },
        {
            "type": "air",
            "legs": [
                {
                    "start": {
                        "name": "BGO"
                    },
                    "end": {
                        "name": "FRA"
                    },
                    "aircraft": "32N",
                    "distance": 1160.1912891965585
                },
                {
                    "start": {
                        "name": "FRA"
                    },
                    "end": {
                        "name": "LYS"
                    },
                    "aircraft": "32N",
                    "distance": 544.9826998315332
                }
            ],
            "total_duration_s": "PT8H",
            "total_distance_km": 1705.1739890280917
        }
    ]
}