{
    "origin": "Bordeaux",
    "destination": "Glasgow",
    "alternatives": [
        {
            "type": "rail",
            "legs": [
                {
                    "start": {
                        "name": "BORDEAUX ST JEAN (France)",
                        "lat": 44.825834,
                        "lon": -0.556387
                    },
                    "end": {
                        "name": "PARIS MONTPARNASSE 1 ET 2 (France)",
                        "lat": 48.839724,
                        "lon": 2.318615
                    },
                    "time_s": 8400.0
                },
                {
                    "start": {
                        "name": "PARIS MONTPARNASSE 1 ET 2 (France)",
                        "lat": 48.839724,
                        "lon": 2.318615
                    },
                    "end": {
                        "name": "PARIS NORD (France)",
                        "lat": 48.880275,
                        "lon": 2.355282
                    },
                    "time_s": 3000.0
                },
                {
                    "start": {
                        "name": "PARIS NORD (France)",
                        "lat": 48.880275,
                        "lon": 2.355282
                    },
                    "end": {
                        "name": "PARIS NORD (France)",
                        "lat": 48.880275,
                        "lon": 2.355282
                    },
                    "time_s": 2100.0
                },
                {
                    "start": {
                        "name": "PARIS NORD (France)",
                        "lat": 48.880275,
                        "lon": 2.355282
                    },
                    "end": {
                        "name": "LONDON ST PANCRAS INTL (United Kingdom)",
                        "lat": 51.530555,
                        "lon": -0.125274
                    },
                    "time_s": 4620.0
                },
                {
                    "start": {
                        "name": "LONDON ST PANCRAS INTL (United Kingdom)",
                        "lat": 51.530555,
                        "lon": -0.125274
                    },
                    "end": {
                        "name": "LONDON EUSTON (United Kingdom)",
                        "lat": 51.525836,
                        "lon": -0.133058
                    },
                    "time_s": 3600.0
                },
                {
                    "start": {
                        "name": "LONDON EUSTON (United Kingdom)",
                        "lat": 51.525836,
                        "lon": -0.133058
                    },
                    "end": {
                        "name": "GLASGOW CENTRAL (United Kingdom)",
                        "lat": 55.857504,
                        "lon": -4.257777
                    },
                    "time_s": 16620.0
                }
            ],
            "total_duration_s": 44340.0,
            "total_distance_km": 1399.1401469717039
        },
        {
            "type": "air",
            "legs": [
                {
                    "start": {
                        "name": "BOD"
                    },
                    "end": {
                        "name": "AMS"
                    },
                    "aircraft": "73W",
                    "distance": 923.6933288206424
                },
                {
                    "start": {
                        "name": "AMS"
                    },
                    "end": {
                        "name": "GLA"
                    },
                    "aircraft": "73H",
                    "distance": 717.9574758733316
                }
            ],
            "total_duration_s": "PT16H15M",
            "total_distance_km": 1641.650804693974
        }
    ]
}