{
    "origin": "Bordeaux",
    "destination": "Porto",
    "alternatives": [
        {
            "type": "rail",
            "legs": [
                {
                    "start": {
                        "name": "BORDEAUX ST JEAN (France)",
                        "lat": 44.825834,
                        "lon": -0.556387
                    },
                    "end": {
                        "name": "NARBONNE (France)",
                        "lat": 43.190552,
                        "lon": 3.005552
                    },
                    "time_s": 12600.0
                },
                {
                    "start": {
                        "name": "NARBONNE (France)",
                        "lat": 43.190552,
                        "lon": 3.005552
                    },
                    "end": {
                        "name": "MADRID-PUERTA DE ATOCHA (Spain)",
                        "lat": 40.406386,
                        "lon": -3.690836
                    },
                    "time_s": 18720.0
                },
                {
                    "start": {
                        "name": "MADRID-PUERTA DE ATOCHA (Spain)",
                        "lat": 40.406386,
                        "lon": -3.690836
                    },
                    "end": {
                        "name": "MADRID-CHAMARTIN (Spain)",
                        "lat": 40.471109,
                        "lon": -3.682782
                    },
                    "time_s": 2700.0
                },
                {
                    "start": {
                        "name": "MADRID-CHAMARTIN (Spain)",
                        "lat": 40.471109,
                        "lon": -3.682782
                    },
                    "end": {
                        "name": "PONTEVEDRA (Spain)",
                        "lat": 42.421948,
                        "lon": -8.635559
                    },
                    "time_s": 15240.0
                },
                {
                    "start": {
                        "name": "PONTEVEDRA (Spain)",
                        "lat": 42.421948,
                        "lon": -8.635559
                    },
                    "end": {
                        "name": "VIGO GUIXAR (Spain)",
                        "lat": 42.239718,
                        "lon": -8.711114
                    },
                    "time_s": 1800.0
                },
                {
                    "start": {
                        "name": "VIGO GUIXAR (Spain)",
                        "lat": 42.239718,
                        "lon": -8.711114
                    },
                    "end": {
                        "name": "PORTO - CAMPANHA (Portugal)",
                        "lat": 41.149722,
                        "lon": -8.585552
                    },
                    "time_s": 4920.0
                }
            ],
            "total_duration_s": 100320.0,
            "total_distance_km": 1589.511734029225
        },
        {
            "type": "air",
            "legs": [
                {
                    "start": {
                        "name": "BOD"
                    },
                    "end": {
                        "name": "MAD"
                    },
                    "aircraft": "CRK",
                    "distance": 537.3738677138739
                },
                {
                    "start": {
                        "name": "MAD"
                    },
                    "end": {
                        "name": "OPO"
                    },
                    "aircraft": "32A",
                    "distance": 438.97256247481624
                }
            ],
            "total_duration_s": "PT14H25M",
            "total_distance_km": 976.3464301886902
        }
    ]
}