{
    "origin": "Cologne",
    "destination": "Oslo",
    "alternatives": [
        {
            "type": "rail",
            "legs": [
                {
                    "start": {
                        "name": "KOELN MESSE/DEUTZ (Germany)",
                        "lat": 50.940836,
                        "lon": 6.975
                    },
                    "end": {
                        "name": "HAMBURG HBF (Germany)",
                        "lat": 53.552778,
                        "lon": 10.006945
                    },
                    "time_s": 16140.0
                },
                {
                    "start": {
                        "name": "HAMBURG HBF (Germany)",
                        "lat": 53.552778,
                        "lon": 10.006945
                    },
                    "end": {
                        "name": "KOEBENHAVN H (Denmark)",
                        "lat": 55.673054,
                        "lon": 12.565553
                    },
                    "time_s": 16800.0
                },
                {
                    "start": {
                        "name": "KOEBENHAVN H (Denmark)",
                        "lat": 55.673054,
                        "lon": 12.565553
                    },
                    "end": {
                        "name": "Goteborg C (Sweden)",
                        "lat": 57.708886,
                        "lon": 11.973335
                    },
                    "time_s": 13980.0
                },
                {
                    "start": {
                        "name": "Goteborg C (Sweden)",
                        "lat": 57.708886,
                        "lon": 11.973335
                    },
                    "end": {
                        "name": "Kil (Sweden)",
                        "lat": 59.505003,
                        "lon": 13.316108
                    },
                    "time_s": 7800.0
                },
                {
                    "start": {
                        "name": "Kil (Sweden)",
                        "lat": 59.505003,
                        "lon": 13.316108
                    },
                    "end": {
                        "name": "KONGSVINGER (Norway)",
                        "lat": 60.187779,
                        "lon": 12.003889
                    },
                    "time_s": 5880.0
                },
                {
                    "start": {
                        "name": "KONGSVINGER (Norway)",
                        "lat": 60.187779,
                        "lon": 12.003889
                    },
                    "end": {
                        "name": "OSLO S (Norway)",
                        "lat": 59.910282,
                        "lon": 10.755279
                    },
                    "time_s": 4500.0
                }
            ],
            "total_duration_s": 103920.0,
            "total_distance_km": 1268.7857921686327
        },
        {
            "type": "air",
            "legs": [
                {
                    "start": {
                        "name": "CGN"
                    },
                    "end": {
                        "name": "HAM"
                    },
                    "aircraft": "320",
                    "distance": 363.27917690254185
                },
                {
                    "start": {
                        "name": "HAM"
                    },
                    "end": {
                        "name": "OSL"
                    },
                    "aircraft": "32A",
                    "distance": 732.9173532051217
                }
            ],
            "total_duration_s": "PT4H20M",
            "total_distance_km": 1096.1965301076634
        }
    ]
}