{
    "origin": "Debrecen",
    "destination": "Stavanger",
    "alternatives": [
        {
            "type": "rail",
            "legs": [
                {
                    "start": {
                        "name": "DEBRECEN (Hungary)",
                        "lat": 47.520279,
                        "lon": 21.628613
                    },
                    "end": {
                        "name": "ZUGLO (Hungary)",
                        "lat": 47.511388,
                        "lon": 19.101385
                    },
                    "time_s": 8460.0
                },
                {
                    "start": {
                        "name": "ZUGLO (Hungary)",
                        "lat": 47.511388,
                        "lon": 19.101385
                    },
                    "end": {
                        "name": "BUDAPEST-KELETI (Hungary)",
                        "lat": 47.500278,
                        "lon": 19.084171
                    },
                    "time_s": 1200.0
                },
                {
                    "start": {
                        "name": "BUDAPEST-KELETI (Hungary)",
                        "lat": 47.500278,
                        "lon": 19.084171
                    },
                    "end": {
                        "name": "WIEN HBF (Austria)",
                        "lat": 48.185004,
                        "lon": 16.375829
                    },
                    "time_s": 9660.0
                },
                {
                    "start": {
                        "name": "WIEN HBF (Austria)",
                        "lat": 48.185004,
                        "lon": 16.375829
                    },
                    "end": {
                        "name": "HAMBURG HBF (Germany)",
                        "lat": 53.552778,
                        "lon": 10.006945
                    },
                    "time_s": 45240.0
                },
                {
                    "start": {
                        "name": "HAMBURG HBF (Germany)",
                        "lat": 53.552778,
                        "lon": 10.006945
                    },
                    "end": {
                        "name": "KOEBENHAVN H (Denmark)",
                        "lat": 55.673054,
                        "lon": 12.565553
                    },
                    "time_s": 16800.0
                },
                {
                    "start": {
                        "name": "KOEBENHAVN H (Denmark)",
                        "lat": 55.673054,
                        "lon": 12.565553
                    },
                    "end": {
                        "name": "Goteborg C (Sweden)",
                        "lat": 57.708886,
                        "lon": 11.973335
                    },
                    "time_s": 13980.0
                },
                {
                    "start": {
                        "name": "Goteborg C (Sweden)",
                        "lat": 57.708886,
                        "lon": 11.973335
                    },
                    "end": {
                        "name": "Kil (Sweden)",
                        "lat": 59.505003,
                        "lon": 13.316108
                    },
                    "time_s": 7800.0
                },
                {
                    "start": {
                        "name": "Kil (Sweden)",
                        "lat": 59.505003,
                        "lon": 13.316108
                    },
                    "end": {
                        "name": "KONGSVINGER (Norway)",
                        "lat": 60.187779,
                        "lon": 12.003889
                    },
                    "time_s": 5880.0
                },
                {
                    "start": {
                        "name": "KONGSVINGER (Norway)",
                        "lat": 60.187779,
                        "lon": 12.003889
                    },
                    "end": {
                        "name": "OSLO S (Norway)",
                        "lat": 59.910282,
                        "lon": 10.755279
                    },
                    "time_s": 4500.0
                },
                {
                    "start": {
                        "name": "OSLO S (Norway)",
                        "lat": 59.910282,
                        "lon": 10.755279
                    },
                    "end": {
                        "name": "STAVANGER (Norway)",
                        "lat": 58.966387,
                        "lon": 5.732781
                    },
                    "time_s": 30240.0
                }
            ],
            "total_duration_s": 189720.0,
            "total_distance_km": 2367.7756448831196
        },
        {
            "type": "air",
            "legs": [
                {
                    "start": {
                        "name": "DEB"
                    },
                    "end": {
                        "name": "MUC"
                    },
                    "aircraft": "CR9",
                    "distance": 738.2098347984412
                },
                {
                    "start": {
                        "name": "MUC"
                    },
                    "end": {
                        "name": "FRA"
                    },
                    "aircraft": "321",
                    "distance": 299.0786454580804
                },
                {
                    "start": {
                        "name": "FRA"
                    },
                    "end": {
                        "name": "SVG"
                    },
                    "aircraft": "E90",
                    "distance": 1001.1993674851994
                }
            ],
            "total_duration_s": "PT39H50M",
            "total_distance_km": 2038.487847741721
        }
    ]
}