{
    "origin": "D\u00fcsseldorf",
    "destination": "Granada",
    "alternatives": [
        {
            "type": "rail",
            "legs": [
                {
                    "start": {
                        "name": "DUESSELDORF HBF (Germany)",
                        "lat": 51.219996,
                        "lon": 6.794443
                    },
                    "end": {
                        "name": "BRUXELLES-MIDI (Belgium)",
                        "lat": 50.835554,
                        "lon": 4.336387
                    },
                    "time_s": 8580.0
                },
                {
                    "start": {
                        "name": "BRUXELLES-MIDI (Belgium)",
                        "lat": 50.835554,
                        "lon": 4.336387
                    },
                    "end": {
                        "name": "VALENCE TGV RHONE-ALPES SUD (France)",
                        "lat": 44.991388,
                        "lon": 4.978613
                    },
                    "time_s": 16140.0
                },
                {
                    "start": {
                        "name": "VALENCE TGV RHONE-ALPES SUD (France)",
                        "lat": 44.991388,
                        "lon": 4.978613
                    },
                    "end": {
                        "name": "BARCELONA-SANTS (Spain)",
                        "lat": 41.379442,
                        "lon": 2.140556
                    },
                    "time_s": 15480.0
                },
                {
                    "start": {
                        "name": "BARCELONA-SANTS (Spain)",
                        "lat": 41.379442,
                        "lon": 2.140556
                    },
                    "end": {
                        "name": "MADRID-PUERTA DE ATOCHA (Spain)",
                        "lat": 40.406386,
                        "lon": -3.690836
                    },
                    "time_s": 11820.0
                },
                {
                    "start": {
                        "name": "MADRID-PUERTA DE ATOCHA (Spain)",
                        "lat": 40.406386,
                        "lon": -3.690836
                    },
                    "end": {
                        "name": "GRANADA (Spain)",
                        "lat": 37.184167,
                        "lon": -3.609169
                    },
                    "time_s": 12240.0
                }
            ],
            "total_duration_s": 104760.0,
            "total_distance_km": 2151.7499147126646
        },
        {
            "type": "air",
            "legs": [
                {
                    "start": {
                        "name": "DUS"
                    },
                    "end": {
                        "name": "BCN"
                    },
                    "aircraft": "321",
                    "distance": 1167.4161993130658
                },
                {
                    "start": {
                        "name": "BCN"
                    },
                    "end": {
                        "name": "GRX"
                    },
                    "aircraft": "32A",
                    "distance": 680.1377802099852
                }
            ],
            "total_duration_s": "PT5H55M",
            "total_distance_km": 1847.553979523051
        }
    ]
}