{
    "origin": "D\u00fcsseldorf",
    "destination": "Debrecen",
    "alternatives": [
        {
            "type": "rail",
            "legs": [
                {
                    "start": {
                        "name": "DUESSELDORF HBF (Germany)",
                        "lat": 51.219996,
                        "lon": 6.794443
                    },
                    "end": {
                        "name": "KOELN HBF (Germany)",
                        "lat": 50.943056,
                        "lon": 6.958613
                    },
                    "time_s": 1680.0
                },
                {
                    "start": {
                        "name": "KOELN HBF (Germany)",
                        "lat": 50.943056,
                        "lon": 6.958613
                    },
                    "end": {
                        "name": "MUENCHEN HBF (Germany)",
                        "lat": 48.140274,
                        "lon": 11.55833
                    },
                    "time_s": 18840.0
                },
                {
                    "start": {
                        "name": "MUENCHEN HBF (Germany)",
                        "lat": 48.140274,
                        "lon": 11.55833
                    },
                    "end": {
                        "name": "BUDAPEST-KELENFOELD (Hungary)",
                        "lat": 47.464447,
                        "lon": 19.019997
                    },
                    "time_s": 23580.0
                },
                {
                    "start": {
                        "name": "BUDAPEST-KELENFOELD (Hungary)",
                        "lat": 47.464447,
                        "lon": 19.019997
                    },
                    "end": {
                        "name": "KOEBANYA-KISPEST (Hungary)",
                        "lat": 47.463889,
                        "lon": 19.149442
                    },
                    "time_s": 900.0
                },
                {
                    "start": {
                        "name": "KOEBANYA-KISPEST (Hungary)",
                        "lat": 47.463889,
                        "lon": 19.149442
                    },
                    "end": {
                        "name": "DEBRECEN (Hungary)",
                        "lat": 47.520279,
                        "lon": 21.628613
                    },
                    "time_s": 8040.0
                }
            ],
            "total_duration_s": 58320.0,
            "total_distance_km": 1246.1917477328884
        },
        {
            "type": "air",
            "legs": [
                {
                    "start": {
                        "name": "DUS"
                    },
                    "end": {
                        "name": "MUC"
                    },
                    "aircraft": "32N",
                    "distance": 485.82345364362175
                },
                {
                    "start": {
                        "name": "MUC"
                    },
                    "end": {
                        "name": "DEB"
                    },
                    "aircraft": "CR9",
                    "distance": 738.2098347984412
                }
            ],
            "total_duration_s": "PT3H50M",
            "total_distance_km": 1224.033288442063
        }
    ]
}