{
    "origin": "Florence",
    "destination": "Southampton",
    "alternatives": [
        {
            "type": "rail",
            "legs": [
                {
                    "start": {
                        "name": "FIRENZE S.M.N. (Italy)",
                        "lat": 43.776667,
                        "lon": 11.247501
                    },
                    "end": {
                        "name": "MILANO CENTRALE (Italy)",
                        "lat": 45.486388,
                        "lon": 9.204163
                    },
                    "time_s": 7680.0
                },
                {
                    "start": {
                        "name": "MILANO CENTRALE (Italy)",
                        "lat": 45.486388,
                        "lon": 9.204163
                    },
                    "end": {
                        "name": "BASEL SBB (Switzerland)",
                        "lat": 47.547498,
                        "lon": 7.58944
                    },
                    "time_s": 15120.0
                },
                {
                    "start": {
                        "name": "BASEL SBB (Switzerland)",
                        "lat": 47.547498,
                        "lon": 7.58944
                    },
                    "end": {
                        "name": "PARIS GARE DE LYON (France)",
                        "lat": 48.845001,
                        "lon": 2.373611
                    },
                    "time_s": 11220.0
                },
                {
                    "start": {
                        "name": "PARIS GARE DE LYON (France)",
                        "lat": 48.845001,
                        "lon": 2.373611
                    },
                    "end": {
                        "name": "PARIS NORD (France)",
                        "lat": 48.880275,
                        "lon": 2.355282
                    },
                    "time_s": 2400.0
                },
                {
                    "start": {
                        "name": "PARIS NORD (France)",
                        "lat": 48.880275,
                        "lon": 2.355282
                    },
                    "end": {
                        "name": "PARIS NORD (France)",
                        "lat": 48.880275,
                        "lon": 2.355282
                    },
                    "time_s": 2100.0
                },
                {
                    "start": {
                        "name": "PARIS NORD (France)",
                        "lat": 48.880275,
                        "lon": 2.355282
                    },
                    "end": {
                        "name": "LONDON ST PANCRAS INTL (United Kingdom)",
                        "lat": 51.530555,
                        "lon": -0.125274
                    },
                    "time_s": 4620.0
                },
                {
                    "start": {
                        "name": "LONDON ST PANCRAS INTL (United Kingdom)",
                        "lat": 51.530555,
                        "lon": -0.125274
                    },
                    "end": {
                        "name": "LONDON WATERLOO (United Kingdom)",
                        "lat": 51.499444,
                        "lon": -0.109722
                    },
                    "time_s": 4380.0
                },
                {
                    "start": {
                        "name": "LONDON WATERLOO (United Kingdom)",
                        "lat": 51.499444,
                        "lon": -0.109722
                    },
                    "end": {
                        "name": "SOUTHAMPTON AIRPORT (United Kingdom)",
                        "lat": 50.948612,
                        "lon": -1.362225
                    },
                    "time_s": 4920.0
                }
            ],
            "total_duration_s": 78900.0,
            "total_distance_km": 1380.2756028027113
        },
        {
            "type": "air",
            "legs": [
                {
                    "start": {
                        "name": "FLR"
                    },
                    "end": {
                        "name": "ZRH"
                    },
                    "aircraft": "E90",
                    "distance": 455.76671772285357
                },
                {
                    "start": {
                        "name": "ZRH"
                    },
                    "end": {
                        "name": "AMS"
                    },
                    "aircraft": "E90",
                    "distance": 602.8337311587474
                },
                {
                    "start": {
                        "name": "AMS"
                    },
                    "end": {
                        "name": "SOU"
                    },
                    "aircraft": "E75",
                    "distance": 448.4895717662466
                }
            ],
            "total_duration_s": "PT7H10M",
            "total_distance_km": 1507.0900206478475
        }
    ]
}