{
    "origin": "Florence",
    "destination": "Marseille",
    "alternatives": [
        {
            "type": "rail",
            "legs": [
                {
                    "start": {
                        "name": "FIRENZE S.M.N. (Italy)",
                        "lat": 43.776667,
                        "lon": 11.247501
                    },
                    "end": {
                        "name": "MILANO CENTRALE (Italy)",
                        "lat": 45.486388,
                        "lon": 9.204163
                    },
                    "time_s": 7980.0
                },
                {
                    "start": {
                        "name": "MILANO CENTRALE (Italy)",
                        "lat": 45.486388,
                        "lon": 9.204163
                    },
                    "end": {
                        "name": "VENTIMIGLIA (Italy)",
                        "lat": 43.792218,
                        "lon": 7.610277
                    },
                    "time_s": 13440.0
                },
                {
                    "start": {
                        "name": "VENTIMIGLIA (Italy)",
                        "lat": 43.792218,
                        "lon": 7.610277
                    },
                    "end": {
                        "name": "NICE VILLE (France)",
                        "lat": 43.704448,
                        "lon": 7.261945
                    },
                    "time_s": 3600.0
                },
                {
                    "start": {
                        "name": "NICE VILLE (France)",
                        "lat": 43.704448,
                        "lon": 7.261945
                    },
                    "end": {
                        "name": "MARSEILLE ST CHARLES (France)",
                        "lat": 43.302774,
                        "lon": 5.380278
                    },
                    "time_s": 9600.0
                }
            ],
            "total_duration_s": 41700.0,
            "total_distance_km": 664.068809869199
        },
        {
            "type": "air",
            "legs": [
                {
                    "start": {
                        "name": "FLR"
                    },
                    "end": {
                        "name": "CDG"
                    },
                    "aircraft": "319",
                    "distance": 879.3473737244514
                },
                {
                    "start": {
                        "name": "ORY"
                    },
                    "end": {
                        "name": "MRS"
                    },
                    "aircraft": "318",
                    "distance": 626.9987910335658
                }
            ],
            "total_duration_s": "PT12H",
            "total_distance_km": 1506.346164758017
        }
    ]
}