{
    "origin": "Frankfurt",
    "destination": "Pisa",
    "alternatives": [
        {
            "type": "rail",
            "legs": [
                {
                    "start": {
                        "name": "FRANKFURT(MAIN)HBF (Germany)",
                        "lat": 50.107221,
                        "lon": 8.663893
                    },
                    "end": {
                        "name": "BASEL SBB (Switzerland)",
                        "lat": 47.547498,
                        "lon": 7.58944
                    },
                    "time_s": 12900.0
                },
                {
                    "start": {
                        "name": "BASEL SBB (Switzerland)",
                        "lat": 47.547498,
                        "lon": 7.58944
                    },
                    "end": {
                        "name": "MILANO CENTRALE (Italy)",
                        "lat": 45.486388,
                        "lon": 9.204163
                    },
                    "time_s": 15120.0
                },
                {
                    "start": {
                        "name": "MILANO CENTRALE (Italy)",
                        "lat": 45.486388,
                        "lon": 9.204163
                    },
                    "end": {
                        "name": "FIRENZE S.M.N. (Italy)",
                        "lat": 43.776667,
                        "lon": 11.247501
                    },
                    "time_s": 7500.0
                },
                {
                    "start": {
                        "name": "FIRENZE S.M.N. (Italy)",
                        "lat": 43.776667,
                        "lon": 11.247501
                    },
                    "end": {
                        "name": "PISA CENTRALE (Italy)",
                        "lat": 43.708052,
                        "lon": 10.398056
                    },
                    "time_s": 3600.0
                }
            ],
            "total_duration_s": 42180.0,
            "total_distance_km": 873.8601062515024
        },
        {
            "type": "air",
            "legs": [
                {
                    "start": {
                        "name": "FRA"
                    },
                    "end": {
                        "name": "PSA"
                    },
                    "aircraft": "E95",
                    "distance": 719.430419211815
                }
            ],
            "total_duration_s": "PT1H30M",
            "total_distance_km": 719.430419211815
        }
    ]
}