{
    "origin": "Friedrichshafen",
    "destination": "Belgrade",
    "alternatives": [
        {
            "type": "rail",
            "legs": [
                {
                    "start": {
                        "name": "FRIEDRICHSHAFEN STADT (Germany)",
                        "lat": 47.653337,
                        "lon": 9.473893
                    },
                    "end": {
                        "name": "ULM HBF (Germany)",
                        "lat": 48.399442,
                        "lon": 9.982224
                    },
                    "time_s": 4320.0
                },
                {
                    "start": {
                        "name": "ULM HBF (Germany)",
                        "lat": 48.399442,
                        "lon": 9.982224
                    },
                    "end": {
                        "name": "KARLSRUHE HBF (Germany)",
                        "lat": 48.993611,
                        "lon": 8.402226
                    },
                    "time_s": 6720.0
                },
                {
                    "start": {
                        "name": "KARLSRUHE HBF (Germany)",
                        "lat": 48.993611,
                        "lon": 8.402226
                    },
                    "end": {
                        "name": "PARIS EST (France)",
                        "lat": 48.877497,
                        "lon": 2.358886
                    },
                    "time_s": 9120.0
                },
                {
                    "start": {
                        "name": "PARIS EST (France)",
                        "lat": 48.877497,
                        "lon": 2.358886
                    },
                    "end": {
                        "name": "PARIS NORD (France)",
                        "lat": 48.880275,
                        "lon": 2.355282
                    },
                    "time_s": 1800.0
                },
                {
                    "start": {
                        "name": "PARIS NORD (France)",
                        "lat": 48.880275,
                        "lon": 2.355282
                    },
                    "end": {
                        "name": "BRUXELLES-MIDI (Belgium)",
                        "lat": 50.835554,
                        "lon": 4.336387
                    },
                    "time_s": 4920.0
                },
                {
                    "start": {
                        "name": "BRUXELLES-MIDI (Belgium)",
                        "lat": 50.835554,
                        "lon": 4.336387
                    },
                    "end": {
                        "name": "GRAMMONT (Belgium)",
                        "lat": 50.771111,
                        "lon": 3.87222
                    },
                    "time_s": 2460.0
                }
            ],
            "total_duration_s": 32100.0,
            "total_distance_km": 959.6063614816461
        },
        {
            "type": "air",
            "legs": [
                {
                    "start": {
                        "name": "FDH"
                    },
                    "end": {
                        "name": "FRA"
                    },
                    "aircraft": "CR9",
                    "distance": 271.51330066912493
                },
                {
                    "start": {
                        "name": "FRA"
                    },
                    "end": {
                        "name": "BEG"
                    },
                    "aircraft": "32N",
                    "distance": 1054.5786662750065
                }
            ],
            "total_duration_s": "PT9H",
            "total_distance_km": 1326.0919669441314
        }
    ]
}