{
    "origin": "Genoa",
    "destination": "Frankfurt",
    "alternatives": [
        {
            "type": "rail",
            "legs": [
                {
                    "start": {
                        "name": "GENOVA P.ZA PRINCIPE (Italy)",
                        "lat": 44.417778,
                        "lon": 8.920553
                    },
                    "end": {
                        "name": "MILANO CENTRALE (Italy)",
                        "lat": 45.486388,
                        "lon": 9.204163
                    },
                    "time_s": 6600.0
                },
                {
                    "start": {
                        "name": "MILANO CENTRALE (Italy)",
                        "lat": 45.486388,
                        "lon": 9.204163
                    },
                    "end": {
                        "name": "MILANO P.GARIBALDI (Italy)",
                        "lat": 45.484725,
                        "lon": 9.187776
                    },
                    "time_s": 900.0
                },
                {
                    "start": {
                        "name": "MILANO P.GARIBALDI (Italy)",
                        "lat": 45.484725,
                        "lon": 9.187776
                    },
                    "end": {
                        "name": "BASEL SBB (Switzerland)",
                        "lat": 47.547498,
                        "lon": 7.58944
                    },
                    "time_s": 17460.0
                },
                {
                    "start": {
                        "name": "BASEL SBB (Switzerland)",
                        "lat": 47.547498,
                        "lon": 7.58944
                    },
                    "end": {
                        "name": "FRANKFURT(MAIN)HBF (Germany)",
                        "lat": 50.107221,
                        "lon": 8.663893
                    },
                    "time_s": 9960.0
                }
            ],
            "total_duration_s": 36120.0,
            "total_distance_km": 677.4052097000192
        },
        {
            "type": "air",
            "legs": [
                {
                    "start": {
                        "name": "GOA"
                    },
                    "end": {
                        "name": "AMS"
                    },
                    "aircraft": "E75",
                    "distance": 927.6919610971468
                },
                {
                    "start": {
                        "name": "AMS"
                    },
                    "end": {
                        "name": "FRA"
                    },
                    "aircraft": "319",
                    "distance": 366.57375472178785
                }
            ],
            "total_duration_s": "PT5H40M",
            "total_distance_km": 1294.2657158189345
        }
    ]
}