{
    "origin": "Lille",
    "destination": "Munich",
    "alternatives": [
        {
            "type": "rail",
            "legs": [
                {
                    "start": {
                        "name": "LILLE EUROPE (France)",
                        "lat": 50.639446,
                        "lon": 3.07556
                    },
                    "end": {
                        "name": "PARIS NORD (France)",
                        "lat": 48.880275,
                        "lon": 2.355282
                    },
                    "time_s": 4620.0
                },
                {
                    "start": {
                        "name": "PARIS NORD (France)",
                        "lat": 48.880275,
                        "lon": 2.355282
                    },
                    "end": {
                        "name": "PARIS EST (France)",
                        "lat": 48.877497,
                        "lon": 2.358886
                    },
                    "time_s": 1800.0
                },
                {
                    "start": {
                        "name": "PARIS EST (France)",
                        "lat": 48.877497,
                        "lon": 2.358886
                    },
                    "end": {
                        "name": "STUTTGART HBF (Germany)",
                        "lat": 48.784171,
                        "lon": 9.181663
                    },
                    "time_s": 11340.0
                },
                {
                    "start": {
                        "name": "STUTTGART HBF (Germany)",
                        "lat": 48.784171,
                        "lon": 9.181663
                    },
                    "end": {
                        "name": "MUENCHEN HBF (Germany)",
                        "lat": 48.140274,
                        "lon": 11.55833
                    },
                    "time_s": 7980.0
                }
            ],
            "total_duration_s": 27360.0,
            "total_distance_km": 891.3898742085896
        },
        {
            "type": "air",
            "legs": [
                {
                    "start": {
                        "name": "LIL"
                    },
                    "end": {
                        "name": "LYS"
                    },
                    "aircraft": "E70",
                    "distance": 557.858500923973
                },
                {
                    "start": {
                        "name": "LYS"
                    },
                    "end": {
                        "name": "CDG"
                    },
                    "aircraft": "321",
                    "distance": 412.18284884671124
                },
                {
                    "start": {
                        "name": "CDG"
                    },
                    "end": {
                        "name": "MUC"
                    },
                    "aircraft": "320",
                    "distance": 681.5701871575657
                }
            ],
            "total_duration_s": "PT27H10M",
            "total_distance_km": 1651.61153692825
        }
    ]
}