{
    "origin": "Lille",
    "destination": "Nuremberg",
    "alternatives": [
        {
            "type": "rail",
            "legs": [
                {
                    "start": {
                        "name": "LILLE EUROPE (France)",
                        "lat": 50.639446,
                        "lon": 3.07556
                    },
                    "end": {
                        "name": "PARIS NORD (France)",
                        "lat": 48.880275,
                        "lon": 2.355282
                    },
                    "time_s": 4620.0
                },
                {
                    "start": {
                        "name": "PARIS NORD (France)",
                        "lat": 48.880275,
                        "lon": 2.355282
                    },
                    "end": {
                        "name": "PARIS EST (France)",
                        "lat": 48.877497,
                        "lon": 2.358886
                    },
                    "time_s": 1800.0
                },
                {
                    "start": {
                        "name": "PARIS EST (France)",
                        "lat": 48.877497,
                        "lon": 2.358886
                    },
                    "end": {
                        "name": "STUTTGART HBF (Germany)",
                        "lat": 48.784171,
                        "lon": 9.181663
                    },
                    "time_s": 11340.0
                },
                {
                    "start": {
                        "name": "STUTTGART HBF (Germany)",
                        "lat": 48.784171,
                        "lon": 9.181663
                    },
                    "end": {
                        "name": "NUERNBERG HBF (Germany)",
                        "lat": 49.445552,
                        "lon": 11.083052
                    },
                    "time_s": 8640.0
                }
            ],
            "total_duration_s": 30540.0,
            "total_distance_km": 858.8030406883269
        },
        {
            "type": "air",
            "legs": [
                {
                    "start": {
                        "name": "LIL"
                    },
                    "end": {
                        "name": "LYS"
                    },
                    "aircraft": "E70",
                    "distance": 557.858500923973
                },
                {
                    "start": {
                        "name": "LYS"
                    },
                    "end": {
                        "name": "AMS"
                    },
                    "aircraft": "73H",
                    "distance": 732.365668537666
                },
                {
                    "start": {
                        "name": "AMS"
                    },
                    "end": {
                        "name": "NUE"
                    },
                    "aircraft": "73W",
                    "distance": 541.5968895724073
                }
            ],
            "total_duration_s": "PT16H45M",
            "total_distance_km": 1831.8210590340464
        }
    ]
}