{
    "origin": "Lyon",
    "destination": "Krak\u00f3w",
    "alternatives": [
        {
            "type": "rail",
            "legs": [
                {
                    "start": {
                        "name": "LYON PART DIEU (France)",
                        "lat": 45.760281,
                        "lon": 4.858885
                    },
                    "end": {
                        "name": "PARIS GARE DE LYON (France)",
                        "lat": 48.845001,
                        "lon": 2.373611
                    },
                    "time_s": 7140.0
                },
                {
                    "start": {
                        "name": "PARIS GARE DE LYON (France)",
                        "lat": 48.845001,
                        "lon": 2.373611
                    },
                    "end": {
                        "name": "PARIS NORD (France)",
                        "lat": 48.880275,
                        "lon": 2.355282
                    },
                    "time_s": 2400.0
                },
                {
                    "start": {
                        "name": "PARIS NORD (France)",
                        "lat": 48.880275,
                        "lon": 2.355282
                    },
                    "end": {
                        "name": "KOELN HBF (Germany)",
                        "lat": 50.943056,
                        "lon": 6.958613
                    },
                    "time_s": 12060.0
                },
                {
                    "start": {
                        "name": "KOELN HBF (Germany)",
                        "lat": 50.943056,
                        "lon": 6.958613
                    },
                    "end": {
                        "name": "BERLIN HBF (TIEF) (Germany)",
                        "lat": 52.525553,
                        "lon": 13.369441
                    },
                    "time_s": 15720.0
                },
                {
                    "start": {
                        "name": "BERLIN HBF (TIEF) (Germany)",
                        "lat": 52.525553,
                        "lon": 13.369441
                    },
                    "end": {
                        "name": "BERLIN HBF (Germany)",
                        "lat": 52.525553,
                        "lon": 13.369441
                    },
                    "time_s": 540.0
                },
                {
                    "start": {
                        "name": "BERLIN HBF (Germany)",
                        "lat": 52.525553,
                        "lon": 13.369441
                    },
                    "end": {
                        "name": "RZEPIN (Poland)",
                        "lat": 52.350003,
                        "lon": 14.815275
                    },
                    "time_s": 4920.0
                },
                {
                    "start": {
                        "name": "RZEPIN (Poland)",
                        "lat": 52.350003,
                        "lon": 14.815275
                    },
                    "end": {
                        "name": "KRAKOW GLOWNY (Poland)",
                        "lat": 50.068334,
                        "lon": 19.947504
                    },
                    "time_s": 30720.0
                }
            ],
            "total_duration_s": 82920.0,
            "total_distance_km": 1809.6127122276835
        },
        {
            "type": "air",
            "legs": [
                {
                    "start": {
                        "name": "LYS"
                    },
                    "end": {
                        "name": "AMS"
                    },
                    "aircraft": "73W",
                    "distance": 732.365668537666
                },
                {
                    "start": {
                        "name": "AMS"
                    },
                    "end": {
                        "name": "KRK"
                    },
                    "aircraft": "E90",
                    "distance": 1073.596156575139
                }
            ],
            "total_duration_s": "PT21H10M",
            "total_distance_km": 1805.961825112805
        }
    ]
}