{
    "origin": "Lyon",
    "destination": "Southampton",
    "alternatives": [
        {
            "type": "rail",
            "legs": [
                {
                    "start": {
                        "name": "LYON PART DIEU (France)",
                        "lat": 45.760281,
                        "lon": 4.858885
                    },
                    "end": {
                        "name": "PARIS GARE DE LYON (France)",
                        "lat": 48.845001,
                        "lon": 2.373611
                    },
                    "time_s": 7140.0
                },
                {
                    "start": {
                        "name": "PARIS GARE DE LYON (France)",
                        "lat": 48.845001,
                        "lon": 2.373611
                    },
                    "end": {
                        "name": "PARIS NORD (France)",
                        "lat": 48.880275,
                        "lon": 2.355282
                    },
                    "time_s": 2400.0
                },
                {
                    "start": {
                        "name": "PARIS NORD (France)",
                        "lat": 48.880275,
                        "lon": 2.355282
                    },
                    "end": {
                        "name": "PARIS NORD (France)",
                        "lat": 48.880275,
                        "lon": 2.355282
                    },
                    "time_s": 2100.0
                },
                {
                    "start": {
                        "name": "PARIS NORD (France)",
                        "lat": 48.880275,
                        "lon": 2.355282
                    },
                    "end": {
                        "name": "LONDON ST PANCRAS INTL (United Kingdom)",
                        "lat": 51.530555,
                        "lon": -0.125274
                    },
                    "time_s": 4620.0
                },
                {
                    "start": {
                        "name": "LONDON ST PANCRAS INTL (United Kingdom)",
                        "lat": 51.530555,
                        "lon": -0.125274
                    },
                    "end": {
                        "name": "LONDON WATERLOO (United Kingdom)",
                        "lat": 51.499444,
                        "lon": -0.109722
                    },
                    "time_s": 4380.0
                },
                {
                    "start": {
                        "name": "LONDON WATERLOO (United Kingdom)",
                        "lat": 51.499444,
                        "lon": -0.109722
                    },
                    "end": {
                        "name": "SOUTHAMPTON AIRPORT (United Kingdom)",
                        "lat": 50.948612,
                        "lon": -1.362225
                    },
                    "time_s": 5400.0
                }
            ],
            "total_duration_s": 28200.0,
            "total_distance_km": 848.6361346553508
        },
        {
            "type": "air",
            "legs": [
                {
                    "start": {
                        "name": "LYS"
                    },
                    "end": {
                        "name": "AMS"
                    },
                    "aircraft": "73H",
                    "distance": 732.365668537666
                },
                {
                    "start": {
                        "name": "AMS"
                    },
                    "end": {
                        "name": "SOU"
                    },
                    "aircraft": "E75",
                    "distance": 448.4895717662466
                }
            ],
            "total_duration_s": "PT11H35M",
            "total_distance_km": 1180.8552403039125
        }
    ]
}