{
    "origin": "Lyon",
    "destination": "Belgrade",
    "alternatives": [
        {
            "type": "rail",
            "legs": [
                {
                    "start": {
                        "name": "LYON PART DIEU (France)",
                        "lat": 45.760281,
                        "lon": 4.858885
                    },
                    "end": {
                        "name": "PARIS GARE DE LYON (France)",
                        "lat": 48.845001,
                        "lon": 2.373611
                    },
                    "time_s": 7140.0
                },
                {
                    "start": {
                        "name": "PARIS GARE DE LYON (France)",
                        "lat": 48.845001,
                        "lon": 2.373611
                    },
                    "end": {
                        "name": "PARIS NORD (France)",
                        "lat": 48.880275,
                        "lon": 2.355282
                    },
                    "time_s": 2400.0
                },
                {
                    "start": {
                        "name": "PARIS NORD (France)",
                        "lat": 48.880275,
                        "lon": 2.355282
                    },
                    "end": {
                        "name": "BRUXELLES-MIDI (Belgium)",
                        "lat": 50.835554,
                        "lon": 4.336387
                    },
                    "time_s": 4920.0
                },
                {
                    "start": {
                        "name": "BRUXELLES-MIDI (Belgium)",
                        "lat": 50.835554,
                        "lon": 4.336387
                    },
                    "end": {
                        "name": "DENDERLEEUW (Belgium)",
                        "lat": 50.891665,
                        "lon": 4.071664
                    },
                    "time_s": 960.0
                },
                {
                    "start": {
                        "name": "DENDERLEEUW (Belgium)",
                        "lat": 50.891665,
                        "lon": 4.071664
                    },
                    "end": {
                        "name": "GRAMMONT (Belgium)",
                        "lat": 50.771111,
                        "lon": 3.87222
                    },
                    "time_s": 1620.0
                }
            ],
            "total_duration_s": 20940.0,
            "total_distance_km": 693.6078554843386
        },
        {
            "type": "air",
            "legs": [
                {
                    "start": {
                        "name": "LYS"
                    },
                    "end": {
                        "name": "AMS"
                    },
                    "aircraft": "73W",
                    "distance": 732.365668537666
                },
                {
                    "start": {
                        "name": "AMS"
                    },
                    "end": {
                        "name": "BEG"
                    },
                    "aircraft": "295",
                    "distance": 1410.2168665429149
                }
            ],
            "total_duration_s": "PT8H50M",
            "total_distance_km": 2142.582535080581
        }
    ]
}