{
    "origin": "Marseille",
    "destination": "Malm\u00f6",
    "alternatives": [
        {
            "type": "rail",
            "legs": [
                {
                    "start": {
                        "name": "MARSEILLE ST CHARLES (France)",
                        "lat": 43.302774,
                        "lon": 5.380278
                    },
                    "end": {
                        "name": "KARLSRUHE HBF (Germany)",
                        "lat": 48.993611,
                        "lon": 8.402226
                    },
                    "time_s": 23760.0
                },
                {
                    "start": {
                        "name": "KARLSRUHE HBF (Germany)",
                        "lat": 48.993611,
                        "lon": 8.402226
                    },
                    "end": {
                        "name": "HAMBURG HBF (Germany)",
                        "lat": 53.552778,
                        "lon": 10.006945
                    },
                    "time_s": 18180.0
                },
                {
                    "start": {
                        "name": "HAMBURG HBF (Germany)",
                        "lat": 53.552778,
                        "lon": 10.006945
                    },
                    "end": {
                        "name": "FLENSBURG (Germany)",
                        "lat": 54.774169,
                        "lon": 9.43639
                    },
                    "time_s": 7020.0
                },
                {
                    "start": {
                        "name": "FLENSBURG (Germany)",
                        "lat": 54.774169,
                        "lon": 9.43639
                    },
                    "end": {
                        "name": "FREDERICIA (Denmark)",
                        "lat": 55.56806,
                        "lon": 9.740558
                    },
                    "time_s": 5160.0
                },
                {
                    "start": {
                        "name": "FREDERICIA (Denmark)",
                        "lat": 55.56806,
                        "lon": 9.740558
                    },
                    "end": {
                        "name": "CPH LUFTHAVN (Denmark)",
                        "lat": 55.629169,
                        "lon": 12.648892
                    },
                    "time_s": 9480.0
                },
                {
                    "start": {
                        "name": "CPH LUFTHAVN (Denmark)",
                        "lat": 55.629169,
                        "lon": 12.648892
                    },
                    "end": {
                        "name": "Malmo C (Sweden)",
                        "lat": 55.609447,
                        "lon": 13.000829
                    },
                    "time_s": 1440.0
                }
            ],
            "total_duration_s": 77760.0,
            "total_distance_km": 1629.373323082471
        },
        {
            "type": "air",
            "legs": [
                {
                    "start": {
                        "name": "MRS"
                    },
                    "end": {
                        "name": "IST"
                    },
                    "aircraft": "73H",
                    "distance": 1941.8120592642113
                },
                {
                    "start": {
                        "name": "IST"
                    },
                    "end": {
                        "name": "ARN"
                    },
                    "aircraft": "321",
                    "distance": 2176.0046972860005
                },
                {
                    "start": {
                        "name": "ARN"
                    },
                    "end": {
                        "name": "MMX"
                    },
                    "aircraft": "CR9",
                    "distance": 531.4192384914018
                }
            ],
            "total_duration_s": "PT20H40M",
            "total_distance_km": 4649.235995041614
        }
    ]
}