{
    "origin": "Milan",
    "destination": "Bergen",
    "alternatives": [
        {
            "type": "rail",
            "legs": [
                {
                    "start": {
                        "name": "MILANO CENTRALE (Italy)",
                        "lat": 45.486388,
                        "lon": 9.204163
                    },
                    "end": {
                        "name": "GENEVE (Switzerland)",
                        "lat": 46.210281,
                        "lon": 6.1425
                    },
                    "time_s": 14460.0
                },
                {
                    "start": {
                        "name": "GENEVE (Switzerland)",
                        "lat": 46.210281,
                        "lon": 6.1425
                    },
                    "end": {
                        "name": "PARIS GARE DE LYON (France)",
                        "lat": 48.845001,
                        "lon": 2.373611
                    },
                    "time_s": 11640.0
                },
                {
                    "start": {
                        "name": "PARIS GARE DE LYON (France)",
                        "lat": 48.845001,
                        "lon": 2.373611
                    },
                    "end": {
                        "name": "PARIS NORD (France)",
                        "lat": 48.880275,
                        "lon": 2.355282
                    },
                    "time_s": 2400.0
                },
                {
                    "start": {
                        "name": "PARIS NORD (France)",
                        "lat": 48.880275,
                        "lon": 2.355282
                    },
                    "end": {
                        "name": "BRUXELLES-MIDI (Belgium)",
                        "lat": 50.835554,
                        "lon": 4.336387
                    },
                    "time_s": 4920.0
                },
                {
                    "start": {
                        "name": "BRUXELLES-MIDI (Belgium)",
                        "lat": 50.835554,
                        "lon": 4.336387
                    },
                    "end": {
                        "name": "MARCHIENNE-AU-PONT (Belgium)",
                        "lat": 50.411947,
                        "lon": 4.39417
                    },
                    "time_s": 3000.0
                },
                {
                    "start": {
                        "name": "MARCHIENNE-AU-PONT (Belgium)",
                        "lat": 50.411947,
                        "lon": 4.39417
                    },
                    "end": {
                        "name": "MONS (Belgium)",
                        "lat": 50.453612,
                        "lon": 3.942498
                    },
                    "time_s": 1800.0
                }
            ],
            "total_duration_s": 39660.0,
            "total_distance_km": 1001.043475537086
        },
        {
            "type": "air",
            "legs": [
                {
                    "start": {
                        "name": "MXP"
                    },
                    "end": {
                        "name": "OSL"
                    },
                    "aircraft": "73H",
                    "distance": 1626.8981317683151
                },
                {
                    "start": {
                        "name": "OSL"
                    },
                    "end": {
                        "name": "BGO"
                    },
                    "aircraft": "73H",
                    "distance": 324.7080661986591
                }
            ],
            "total_duration_s": "PT5H35M",
            "total_distance_km": 1951.6061979669742
        }
    ]
}