{
    "origin": "Nantes",
    "destination": "Warsaw",
    "alternatives": [
        {
            "type": "rail",
            "legs": [
                {
                    "start": {
                        "name": "NANTES (France)",
                        "lat": 47.217504,
                        "lon": -1.541947
                    },
                    "end": {
                        "name": "BRUXELLES-MIDI (Belgium)",
                        "lat": 50.835554,
                        "lon": 4.336387
                    },
                    "time_s": 18000.0
                },
                {
                    "start": {
                        "name": "BRUXELLES-MIDI (Belgium)",
                        "lat": 50.835554,
                        "lon": 4.336387
                    },
                    "end": {
                        "name": "KOELN HBF (Germany)",
                        "lat": 50.943056,
                        "lon": 6.958613
                    },
                    "time_s": 6660.0
                },
                {
                    "start": {
                        "name": "KOELN HBF (Germany)",
                        "lat": 50.943056,
                        "lon": 6.958613
                    },
                    "end": {
                        "name": "BERLIN HBF (TIEF) (Germany)",
                        "lat": 52.525553,
                        "lon": 13.369441
                    },
                    "time_s": 15720.0
                },
                {
                    "start": {
                        "name": "BERLIN HBF (TIEF) (Germany)",
                        "lat": 52.525553,
                        "lon": 13.369441
                    },
                    "end": {
                        "name": "BERLIN HBF (Germany)",
                        "lat": 52.525553,
                        "lon": 13.369441
                    },
                    "time_s": 540.0
                },
                {
                    "start": {
                        "name": "BERLIN HBF (Germany)",
                        "lat": 52.525553,
                        "lon": 13.369441
                    },
                    "end": {
                        "name": "RZEPIN (Poland)",
                        "lat": 52.350003,
                        "lon": 14.815275
                    },
                    "time_s": 4920.0
                },
                {
                    "start": {
                        "name": "RZEPIN (Poland)",
                        "lat": 52.350003,
                        "lon": 14.815275
                    },
                    "end": {
                        "name": "WARSZAWA GDANSKA (Poland)",
                        "lat": 52.258888,
                        "lon": 20.99472
                    },
                    "time_s": 20940.0
                },
                {
                    "start": {
                        "name": "WARSZAWA GDANSKA (Poland)",
                        "lat": 52.258888,
                        "lon": 20.99472
                    },
                    "end": {
                        "name": "WARSZAWA ZACHODNIA P8 (Poland)",
                        "lat": 52.2225,
                        "lon": 20.961388
                    },
                    "time_s": 600.0
                }
            ],
            "total_duration_s": 89340.0,
            "total_distance_km": 1771.5734621680206
        },
        {
            "type": "air",
            "legs": [
                {
                    "start": {
                        "name": "NTE"
                    },
                    "end": {
                        "name": "CDG"
                    },
                    "aircraft": "321",
                    "distance": 371.78334166513326
                },
                {
                    "start": {
                        "name": "CDG"
                    },
                    "end": {
                        "name": "WAW"
                    },
                    "aircraft": "320",
                    "distance": 1342.4949677851112
                }
            ],
            "total_duration_s": "PT4H10M",
            "total_distance_km": 1714.2783094502445
        }
    ]
}