{
    "origin": "Nantes",
    "destination": "Seville",
    "alternatives": [
        {
            "type": "rail",
            "legs": [
                {
                    "start": {
                        "name": "NANTES (France)",
                        "lat": 47.217504,
                        "lon": -1.541947
                    },
                    "end": {
                        "name": "MONTPELLIER SAINT-ROCH (France)",
                        "lat": 43.604721,
                        "lon": 3.880553
                    },
                    "time_s": 23820.0
                },
                {
                    "start": {
                        "name": "MONTPELLIER SAINT-ROCH (France)",
                        "lat": 43.604721,
                        "lon": 3.880553
                    },
                    "end": {
                        "name": "BARCELONA-SANTS (Spain)",
                        "lat": 41.379442,
                        "lon": 2.140556
                    },
                    "time_s": 10800.0
                },
                {
                    "start": {
                        "name": "BARCELONA-SANTS (Spain)",
                        "lat": 41.379442,
                        "lon": 2.140556
                    },
                    "end": {
                        "name": "MADRID-PUERTA DE ATOCHA (Spain)",
                        "lat": 40.406386,
                        "lon": -3.690836
                    },
                    "time_s": 11820.0
                },
                {
                    "start": {
                        "name": "MADRID-PUERTA DE ATOCHA (Spain)",
                        "lat": 40.406386,
                        "lon": -3.690836
                    },
                    "end": {
                        "name": "SEVILLA-SANTA JUSTA (Spain)",
                        "lat": 37.391944,
                        "lon": -5.975274
                    },
                    "time_s": 10020.0
                }
            ],
            "total_duration_s": 89580.0,
            "total_distance_km": 1759.8729800996812
        },
        {
            "type": "air",
            "legs": [
                {
                    "start": {
                        "name": "NTE"
                    },
                    "end": {
                        "name": "BCN"
                    },
                    "aircraft": "32A",
                    "distance": 714.2362067199095
                },
                {
                    "start": {
                        "name": "BCN"
                    },
                    "end": {
                        "name": "SVQ"
                    },
                    "aircraft": "321",
                    "distance": 809.2793310471277
                }
            ],
            "total_duration_s": "PT8H5M",
            "total_distance_km": 1523.5155377670371
        }
    ]
}