{
    "origin": "Naples",
    "destination": "Cologne",
    "alternatives": [
        {
            "type": "rail",
            "legs": [
                {
                    "start": {
                        "name": "NAPOLI CENTRALE (Italy)",
                        "lat": 40.85306,
                        "lon": 14.272776
                    },
                    "end": {
                        "name": "MILANO CENTRALE (Italy)",
                        "lat": 45.486388,
                        "lon": 9.204163
                    },
                    "time_s": 19200.0
                },
                {
                    "start": {
                        "name": "MILANO CENTRALE (Italy)",
                        "lat": 45.486388,
                        "lon": 9.204163
                    },
                    "end": {
                        "name": "BRIG (Switzerland)",
                        "lat": 46.319446,
                        "lon": 7.988057
                    },
                    "time_s": 6840.0
                },
                {
                    "start": {
                        "name": "BRIG (Switzerland)",
                        "lat": 46.319446,
                        "lon": 7.988057
                    },
                    "end": {
                        "name": "BASEL SBB (Switzerland)",
                        "lat": 47.547498,
                        "lon": 7.58944
                    },
                    "time_s": 8040.0
                },
                {
                    "start": {
                        "name": "BASEL SBB (Switzerland)",
                        "lat": 47.547498,
                        "lon": 7.58944
                    },
                    "end": {
                        "name": "MANNHEIM HBF (Germany)",
                        "lat": 49.479442,
                        "lon": 8.46889
                    },
                    "time_s": 7860.0
                },
                {
                    "start": {
                        "name": "MANNHEIM HBF (Germany)",
                        "lat": 49.479442,
                        "lon": 8.46889
                    },
                    "end": {
                        "name": "KOELN HBF (Germany)",
                        "lat": 50.943056,
                        "lon": 6.958613
                    },
                    "time_s": 5340.0
                }
            ],
            "total_duration_s": 51600.0,
            "total_distance_km": 1350.0972563811922
        },
        {
            "type": "air",
            "legs": [
                {
                    "start": {
                        "name": "NAP"
                    },
                    "end": {
                        "name": "VIE"
                    },
                    "aircraft": "E95",
                    "distance": 823.2853151602651
                },
                {
                    "start": {
                        "name": "VIE"
                    },
                    "end": {
                        "name": "CGN"
                    },
                    "aircraft": "320",
                    "distance": 745.9899815657448
                }
            ],
            "total_duration_s": "PT5H50M",
            "total_distance_km": 1569.2752967260099
        }
    ]
}