{
    "origin": "Naples",
    "destination": "Belgrade",
    "alternatives": [
        {
            "type": "rail",
            "legs": [
                {
                    "start": {
                        "name": "NAPOLI CENTRALE (Italy)",
                        "lat": 40.85306,
                        "lon": 14.272776
                    },
                    "end": {
                        "name": "TORINO PORTA SUSA (Italy)",
                        "lat": 45.07417,
                        "lon": 7.666945
                    },
                    "time_s": 22980.0
                },
                {
                    "start": {
                        "name": "TORINO PORTA SUSA (Italy)",
                        "lat": 45.07417,
                        "lon": 7.666945
                    },
                    "end": {
                        "name": "PARIS GARE DE LYON (France)",
                        "lat": 48.845001,
                        "lon": 2.373611
                    },
                    "time_s": 20280.0
                },
                {
                    "start": {
                        "name": "PARIS GARE DE LYON (France)",
                        "lat": 48.845001,
                        "lon": 2.373611
                    },
                    "end": {
                        "name": "PARIS NORD (France)",
                        "lat": 48.880275,
                        "lon": 2.355282
                    },
                    "time_s": 2400.0
                },
                {
                    "start": {
                        "name": "PARIS NORD (France)",
                        "lat": 48.880275,
                        "lon": 2.355282
                    },
                    "end": {
                        "name": "LILLE EUROPE (France)",
                        "lat": 50.639446,
                        "lon": 3.07556
                    },
                    "time_s": 4560.0
                },
                {
                    "start": {
                        "name": "LILLE EUROPE (France)",
                        "lat": 50.639446,
                        "lon": 3.07556
                    },
                    "end": {
                        "name": "LILLE FLANDRES (France)",
                        "lat": 50.636389,
                        "lon": 3.070275
                    },
                    "time_s": 1200.0
                },
                {
                    "start": {
                        "name": "LILLE FLANDRES (France)",
                        "lat": 50.636389,
                        "lon": 3.070275
                    },
                    "end": {
                        "name": "FROYENNES (Belgium)",
                        "lat": 50.629719,
                        "lon": 3.35472
                    },
                    "time_s": 1500.0
                },
                {
                    "start": {
                        "name": "FROYENNES (Belgium)",
                        "lat": 50.629719,
                        "lon": 3.35472
                    },
                    "end": {
                        "name": "ATH (Belgium)",
                        "lat": 50.626663,
                        "lon": 3.777222
                    },
                    "time_s": 1680.0
                },
                {
                    "start": {
                        "name": "ATH (Belgium)",
                        "lat": 50.626663,
                        "lon": 3.777222
                    },
                    "end": {
                        "name": "GRAMMONT (Belgium)",
                        "lat": 50.771111,
                        "lon": 3.87222
                    },
                    "time_s": 1320.0
                }
            ],
            "total_duration_s": 84480.0,
            "total_distance_km": 1567.8441154102625
        },
        {
            "type": "air",
            "legs": [
                {
                    "start": {
                        "name": "NAP"
                    },
                    "end": {
                        "name": "ZRH"
                    },
                    "aircraft": "320",
                    "distance": 862.450152672853
                },
                {
                    "start": {
                        "name": "ZRH"
                    },
                    "end": {
                        "name": "BEG"
                    },
                    "aircraft": "223",
                    "distance": 951.5124467851981
                }
            ],
            "total_duration_s": "PT4H35M",
            "total_distance_km": 1813.962599458051
        }
    ]
}