{
    "origin": "Naples",
    "destination": "Malaga",
    "alternatives": [
        {
            "type": "rail",
            "legs": [
                {
                    "start": {
                        "name": "NAPOLI CENTRALE (Italy)",
                        "lat": 40.85306,
                        "lon": 14.272776
                    },
                    "end": {
                        "name": "MILANO P.GARIBALDI (Italy)",
                        "lat": 45.484725,
                        "lon": 9.187776
                    },
                    "time_s": 33600.0
                },
                {
                    "start": {
                        "name": "MILANO P.GARIBALDI (Italy)",
                        "lat": 45.484725,
                        "lon": 9.187776
                    },
                    "end": {
                        "name": "MILANO CENTRALE (Italy)",
                        "lat": 45.486388,
                        "lon": 9.204163
                    },
                    "time_s": 900.0
                },
                {
                    "start": {
                        "name": "MILANO CENTRALE (Italy)",
                        "lat": 45.486388,
                        "lon": 9.204163
                    },
                    "end": {
                        "name": "GENEVE (Switzerland)",
                        "lat": 46.210281,
                        "lon": 6.1425
                    },
                    "time_s": 14460.0
                },
                {
                    "start": {
                        "name": "GENEVE (Switzerland)",
                        "lat": 46.210281,
                        "lon": 6.1425
                    },
                    "end": {
                        "name": "LYON PART DIEU (France)",
                        "lat": 45.760281,
                        "lon": 4.858885
                    },
                    "time_s": 7020.0
                },
                {
                    "start": {
                        "name": "LYON PART DIEU (France)",
                        "lat": 45.760281,
                        "lon": 4.858885
                    },
                    "end": {
                        "name": "BARCELONA-SANTS (Spain)",
                        "lat": 41.379442,
                        "lon": 2.140556
                    },
                    "time_s": 17820.0
                },
                {
                    "start": {
                        "name": "BARCELONA-SANTS (Spain)",
                        "lat": 41.379442,
                        "lon": 2.140556
                    },
                    "end": {
                        "name": "MADRID-PUERTA DE ATOCHA (Spain)",
                        "lat": 40.406386,
                        "lon": -3.690836
                    },
                    "time_s": 11820.0
                },
                {
                    "start": {
                        "name": "MADRID-PUERTA DE ATOCHA (Spain)",
                        "lat": 40.406386,
                        "lon": -3.690836
                    },
                    "end": {
                        "name": "MALAGA MARIA ZAMBRANO (Spain)",
                        "lat": 36.711946,
                        "lon": -4.431943
                    },
                    "time_s": 10500.0
                }
            ],
            "total_duration_s": 134100.0,
            "total_distance_km": 2473.9503046462355
        },
        {
            "type": "air",
            "legs": [
                {
                    "start": {
                        "name": "NAP"
                    },
                    "end": {
                        "name": "OSL"
                    },
                    "aircraft": "73H",
                    "distance": 2158.1379206318193
                },
                {
                    "start": {
                        "name": "OSL"
                    },
                    "end": {
                        "name": "AGP"
                    },
                    "aircraft": "73H",
                    "distance": 2840.5374792406674
                }
            ],
            "total_duration_s": "PT9H15M",
            "total_distance_km": 4998.675399872487
        }
    ]
}