{
    "origin": "Naples",
    "destination": "Debrecen",
    "alternatives": [
        {
            "type": "rail",
            "legs": [
                {
                    "start": {
                        "name": "NAPOLI CENTRALE (Italy)",
                        "lat": 40.85306,
                        "lon": 14.272776
                    },
                    "end": {
                        "name": "VENEZIA MESTRE (Italy)",
                        "lat": 45.481948,
                        "lon": 12.231667
                    },
                    "time_s": 18840.0
                },
                {
                    "start": {
                        "name": "VENEZIA MESTRE (Italy)",
                        "lat": 45.481948,
                        "lon": 12.231667
                    },
                    "end": {
                        "name": "VILLACH HBF (Austria)",
                        "lat": 46.618607,
                        "lon": 13.848611
                    },
                    "time_s": 11400.0
                },
                {
                    "start": {
                        "name": "VILLACH HBF (Austria)",
                        "lat": 46.618607,
                        "lon": 13.848611
                    },
                    "end": {
                        "name": "WIEN HBF (Austria)",
                        "lat": 48.185004,
                        "lon": 16.375829
                    },
                    "time_s": 15660.0
                },
                {
                    "start": {
                        "name": "WIEN HBF (Austria)",
                        "lat": 48.185004,
                        "lon": 16.375829
                    },
                    "end": {
                        "name": "BUDAPEST-KELETI (Hungary)",
                        "lat": 47.500278,
                        "lon": 19.084171
                    },
                    "time_s": 9540.0
                },
                {
                    "start": {
                        "name": "BUDAPEST-KELETI (Hungary)",
                        "lat": 47.500278,
                        "lon": 19.084171
                    },
                    "end": {
                        "name": "ZUGLO (Hungary)",
                        "lat": 47.511388,
                        "lon": 19.101385
                    },
                    "time_s": 1200.0
                },
                {
                    "start": {
                        "name": "ZUGLO (Hungary)",
                        "lat": 47.511388,
                        "lon": 19.101385
                    },
                    "end": {
                        "name": "DEBRECEN (Hungary)",
                        "lat": 47.520279,
                        "lon": 21.628613
                    },
                    "time_s": 11520.0
                }
            ],
            "total_duration_s": 78420.0,
            "total_distance_km": 1383.656307670272
        },
        {
            "type": "air",
            "legs": [
                {
                    "start": {
                        "name": "NAP"
                    },
                    "end": {
                        "name": "MUC"
                    },
                    "aircraft": "321",
                    "distance": 853.5879384029391
                },
                {
                    "start": {
                        "name": "MUC"
                    },
                    "end": {
                        "name": "DEB"
                    },
                    "aircraft": "CR9",
                    "distance": 738.2098347984412
                }
            ],
            "total_duration_s": "PT10H",
            "total_distance_km": 1591.7977732013803
        }
    ]
}