{
    "origin": "Naples",
    "destination": "Malm\u00f6",
    "alternatives": [
        {
            "type": "rail",
            "legs": [
                {
                    "start": {
                        "name": "NAPOLI CENTRALE (Italy)",
                        "lat": 40.85306,
                        "lon": 14.272776
                    },
                    "end": {
                        "name": "BOLOGNA CENTRALE (Italy)",
                        "lat": 44.506393,
                        "lon": 11.341942
                    },
                    "time_s": 13980.0
                },
                {
                    "start": {
                        "name": "BOLOGNA CENTRALE (Italy)",
                        "lat": 44.506393,
                        "lon": 11.341942
                    },
                    "end": {
                        "name": "INNSBRUCK HBF (Austria)",
                        "lat": 47.263331,
                        "lon": 11.40056
                    },
                    "time_s": 17160.0
                },
                {
                    "start": {
                        "name": "INNSBRUCK HBF (Austria)",
                        "lat": 47.263331,
                        "lon": 11.40056
                    },
                    "end": {
                        "name": "HAMBURG HBF (Germany)",
                        "lat": 53.552778,
                        "lon": 10.006945
                    },
                    "time_s": 43380.0
                },
                {
                    "start": {
                        "name": "HAMBURG HBF (Germany)",
                        "lat": 53.552778,
                        "lon": 10.006945
                    },
                    "end": {
                        "name": "KOEBENHAVN H (Denmark)",
                        "lat": 55.673054,
                        "lon": 12.565553
                    },
                    "time_s": 16800.0
                },
                {
                    "start": {
                        "name": "KOEBENHAVN H (Denmark)",
                        "lat": 55.673054,
                        "lon": 12.565553
                    },
                    "end": {
                        "name": "Malmo C (Sweden)",
                        "lat": 55.609447,
                        "lon": 13.000829
                    },
                    "time_s": 2340.0
                }
            ],
            "total_duration_s": 97560.0,
            "total_distance_km": 1800.1894668755865
        },
        {
            "type": "air",
            "legs": [
                {
                    "start": {
                        "name": "NAP"
                    },
                    "end": {
                        "name": "ZRH"
                    },
                    "aircraft": "32B",
                    "distance": 862.450152672853
                },
                {
                    "start": {
                        "name": "ZRH"
                    },
                    "end": {
                        "name": "ARN"
                    },
                    "aircraft": "320",
                    "distance": 1486.4270508187153
                },
                {
                    "start": {
                        "name": "ARN"
                    },
                    "end": {
                        "name": "MMX"
                    },
                    "aircraft": "32N",
                    "distance": 531.4192384914018
                }
            ],
            "total_duration_s": "PT9H40M",
            "total_distance_km": 2880.29644198297
        }
    ]
}