{
    "origin": "Nice",
    "destination": "Valencia",
    "alternatives": [
        {
            "type": "rail",
            "legs": [
                {
                    "start": {
                        "name": "NICE VILLE (France)",
                        "lat": 43.704448,
                        "lon": 7.261945
                    },
                    "end": {
                        "name": "MARSEILLE ST CHARLES (France)",
                        "lat": 43.302774,
                        "lon": 5.380278
                    },
                    "time_s": 9780.0
                },
                {
                    "start": {
                        "name": "MARSEILLE ST CHARLES (France)",
                        "lat": 43.302774,
                        "lon": 5.380278
                    },
                    "end": {
                        "name": "NIMES (France)",
                        "lat": 43.83222,
                        "lon": 4.365836
                    },
                    "time_s": 4320.0
                },
                {
                    "start": {
                        "name": "NIMES (France)",
                        "lat": 43.83222,
                        "lon": 4.365836
                    },
                    "end": {
                        "name": "BARCELONA-SANTS (Spain)",
                        "lat": 41.379442,
                        "lon": 2.140556
                    },
                    "time_s": 13200.0
                },
                {
                    "start": {
                        "name": "BARCELONA-SANTS (Spain)",
                        "lat": 41.379442,
                        "lon": 2.140556
                    },
                    "end": {
                        "name": "VALENCIA JOAQUIN SOROLLA (Spain)",
                        "lat": 39.459166,
                        "lon": -0.383057
                    },
                    "time_s": 10020.0
                }
            ],
            "total_duration_s": 45720.0,
            "total_distance_km": 888.8655435827941
        },
        {
            "type": "air",
            "legs": [
                {
                    "start": {
                        "name": "NCE"
                    },
                    "end": {
                        "name": "MAD"
                    },
                    "aircraft": "CRK",
                    "distance": 956.7979317945806
                },
                {
                    "start": {
                        "name": "MAD"
                    },
                    "end": {
                        "name": "VLC"
                    },
                    "aircraft": "CRK",
                    "distance": 284.32595552066823
                }
            ],
            "total_duration_s": "PT14H55M",
            "total_distance_km": 1241.1238873152488
        }
    ]
}