{
    "origin": "Nice",
    "destination": "Warsaw",
    "alternatives": [
        {
            "type": "rail",
            "legs": [
                {
                    "start": {
                        "name": "NICE VILLE (France)",
                        "lat": 43.704448,
                        "lon": 7.261945
                    },
                    "end": {
                        "name": "PARIS GARE DE LYON (France)",
                        "lat": 48.845001,
                        "lon": 2.373611
                    },
                    "time_s": 20340.0
                },
                {
                    "start": {
                        "name": "PARIS GARE DE LYON (France)",
                        "lat": 48.845001,
                        "lon": 2.373611
                    },
                    "end": {
                        "name": "PARIS EST (France)",
                        "lat": 48.877497,
                        "lon": 2.358886
                    },
                    "time_s": 3000.0
                },
                {
                    "start": {
                        "name": "PARIS EST (France)",
                        "lat": 48.877497,
                        "lon": 2.358886
                    },
                    "end": {
                        "name": "FRANKFURT(MAIN)HBF (Germany)",
                        "lat": 50.107221,
                        "lon": 8.663893
                    },
                    "time_s": 13980.0
                },
                {
                    "start": {
                        "name": "FRANKFURT(MAIN)HBF (Germany)",
                        "lat": 50.107221,
                        "lon": 8.663893
                    },
                    "end": {
                        "name": "BERLIN HBF (TIEF) (Germany)",
                        "lat": 52.525553,
                        "lon": 13.369441
                    },
                    "time_s": 16500.0
                },
                {
                    "start": {
                        "name": "BERLIN HBF (TIEF) (Germany)",
                        "lat": 52.525553,
                        "lon": 13.369441
                    },
                    "end": {
                        "name": "BERLIN HBF (Germany)",
                        "lat": 52.525553,
                        "lon": 13.369441
                    },
                    "time_s": 540.0
                },
                {
                    "start": {
                        "name": "BERLIN HBF (Germany)",
                        "lat": 52.525553,
                        "lon": 13.369441
                    },
                    "end": {
                        "name": "KUTNO (Poland)",
                        "lat": 52.227498,
                        "lon": 19.347222
                    },
                    "time_s": 16440.0
                },
                {
                    "start": {
                        "name": "KUTNO (Poland)",
                        "lat": 52.227498,
                        "lon": 19.347222
                    },
                    "end": {
                        "name": "WARSZAWA ZACHODNIA (Poland)",
                        "lat": 52.220001,
                        "lon": 20.965281
                    },
                    "time_s": 5640.0
                },
                {
                    "start": {
                        "name": "WARSZAWA ZACHODNIA (Poland)",
                        "lat": 52.220001,
                        "lon": 20.965281
                    },
                    "end": {
                        "name": "WARSZAWA ZACHODNIA P8 (Poland)",
                        "lat": 52.2225,
                        "lon": 20.961388
                    },
                    "time_s": 420.0
                }
            ],
            "total_duration_s": 87360.0,
            "total_distance_km": 2103.625490554685
        },
        {
            "type": "air",
            "legs": [
                {
                    "start": {
                        "name": "NCE"
                    },
                    "end": {
                        "name": "WAW"
                    },
                    "aircraft": "E95",
                    "distance": 1390.4834838030536
                }
            ],
            "total_duration_s": "PT2H25M",
            "total_distance_km": 1390.4834838030536
        }
    ]
}