{
    "origin": "Nice",
    "destination": "Bergen",
    "alternatives": [
        {
            "type": "rail",
            "legs": [
                {
                    "start": {
                        "name": "NICE VILLE (France)",
                        "lat": 43.704448,
                        "lon": 7.261945
                    },
                    "end": {
                        "name": "PARIS GARE DE LYON (France)",
                        "lat": 48.845001,
                        "lon": 2.373611
                    },
                    "time_s": 20760.0
                },
                {
                    "start": {
                        "name": "PARIS GARE DE LYON (France)",
                        "lat": 48.845001,
                        "lon": 2.373611
                    },
                    "end": {
                        "name": "PARIS NORD (France)",
                        "lat": 48.880275,
                        "lon": 2.355282
                    },
                    "time_s": 2400.0
                },
                {
                    "start": {
                        "name": "PARIS NORD (France)",
                        "lat": 48.880275,
                        "lon": 2.355282
                    },
                    "end": {
                        "name": "BRUXELLES-MIDI (Belgium)",
                        "lat": 50.835554,
                        "lon": 4.336387
                    },
                    "time_s": 4920.0
                },
                {
                    "start": {
                        "name": "BRUXELLES-MIDI (Belgium)",
                        "lat": 50.835554,
                        "lon": 4.336387
                    },
                    "end": {
                        "name": "HAL (Belgium)",
                        "lat": 50.733886,
                        "lon": 4.240553
                    },
                    "time_s": 540.0
                },
                {
                    "start": {
                        "name": "HAL (Belgium)",
                        "lat": 50.733886,
                        "lon": 4.240553
                    },
                    "end": {
                        "name": "BRAINE-LE-COMTE (Belgium)",
                        "lat": 50.604999,
                        "lon": 4.137501
                    },
                    "time_s": 1800.0
                },
                {
                    "start": {
                        "name": "BRAINE-LE-COMTE (Belgium)",
                        "lat": 50.604999,
                        "lon": 4.137501
                    },
                    "end": {
                        "name": "MONS (Belgium)",
                        "lat": 50.453612,
                        "lon": 3.942498
                    },
                    "time_s": 1500.0
                }
            ],
            "total_duration_s": 34380.0,
            "total_distance_km": 998.4920469299096
        },
        {
            "type": "air",
            "legs": [
                {
                    "start": {
                        "name": "NCE"
                    },
                    "end": {
                        "name": "ARN"
                    },
                    "aircraft": "73H",
                    "distance": 1919.9583617079697
                },
                {
                    "start": {
                        "name": "ARN"
                    },
                    "end": {
                        "name": "BGO"
                    },
                    "aircraft": "73H",
                    "distance": 709.1724027105588
                }
            ],
            "total_duration_s": "PT9H",
            "total_distance_km": 2629.1307644185285
        }
    ]
}