{
    "origin": "Paris",
    "destination": "D\u00fcsseldorf",
    "alternatives": [
        {
            "type": "rail",
            "legs": [
                {
                    "start": {
                        "name": "PARIS EST (France)",
                        "lat": 48.877497,
                        "lon": 2.358886
                    },
                    "end": {
                        "name": "KARLSRUHE HBF (Germany)",
                        "lat": 48.993611,
                        "lon": 8.402226
                    },
                    "time_s": 9060.0
                },
                {
                    "start": {
                        "name": "KARLSRUHE HBF (Germany)",
                        "lat": 48.993611,
                        "lon": 8.402226
                    },
                    "end": {
                        "name": "MANNHEIM HBF (Germany)",
                        "lat": 49.479442,
                        "lon": 8.46889
                    },
                    "time_s": 1440.0
                },
                {
                    "start": {
                        "name": "MANNHEIM HBF (Germany)",
                        "lat": 49.479442,
                        "lon": 8.46889
                    },
                    "end": {
                        "name": "KOELN HBF (Germany)",
                        "lat": 50.943056,
                        "lon": 6.958613
                    },
                    "time_s": 5340.0
                },
                {
                    "start": {
                        "name": "KOELN HBF (Germany)",
                        "lat": 50.943056,
                        "lon": 6.958613
                    },
                    "end": {
                        "name": "DUESSELDORF HBF (Germany)",
                        "lat": 51.219996,
                        "lon": 6.794443
                    },
                    "time_s": 1260.0
                }
            ],
            "total_duration_s": 20160.0,
            "total_distance_km": 723.6262320169284
        },
        {
            "type": "air",
            "legs": [
                {
                    "start": {
                        "name": "CDG"
                    },
                    "end": {
                        "name": "DUS"
                    },
                    "aircraft": "E90",
                    "distance": 392.77118409813227
                }
            ],
            "total_duration_s": "PT1H10M",
            "total_distance_km": 392.77118409813227
        }
    ]
}