{
    "origin": "Pisa",
    "destination": "Nice",
    "alternatives": [
        {
            "type": "rail",
            "legs": [
                {
                    "start": {
                        "name": "PISA S. ROSSORE (Italy)",
                        "lat": 43.723334,
                        "lon": 10.387224
                    },
                    "end": {
                        "name": "LA SPEZIA CENTRALE (Italy)",
                        "lat": 44.111389,
                        "lon": 9.813892
                    },
                    "time_s": 4620.0
                },
                {
                    "start": {
                        "name": "LA SPEZIA CENTRALE (Italy)",
                        "lat": 44.111389,
                        "lon": 9.813892
                    },
                    "end": {
                        "name": "GENOVA BRIGNOLE (Italy)",
                        "lat": 44.406946,
                        "lon": 8.947224
                    },
                    "time_s": 5400.0
                },
                {
                    "start": {
                        "name": "GENOVA BRIGNOLE (Italy)",
                        "lat": 44.406946,
                        "lon": 8.947224
                    },
                    "end": {
                        "name": "VENTIMIGLIA (Italy)",
                        "lat": 43.792218,
                        "lon": 7.610277
                    },
                    "time_s": 8880.0
                },
                {
                    "start": {
                        "name": "VENTIMIGLIA (Italy)",
                        "lat": 43.792218,
                        "lon": 7.610277
                    },
                    "end": {
                        "name": "NICE VILLE (France)",
                        "lat": 43.704448,
                        "lon": 7.261945
                    },
                    "time_s": 3480.0
                }
            ],
            "total_duration_s": 27780.0,
            "total_distance_km": 295.854724730054
        },
        {
            "type": "air",
            "legs": [
                {
                    "start": {
                        "name": "PSA"
                    },
                    "end": {
                        "name": "RIX"
                    },
                    "aircraft": "223",
                    "distance": 1752.870724825391
                },
                {
                    "start": {
                        "name": "RIX"
                    },
                    "end": {
                        "name": "NCE"
                    },
                    "aircraft": "223",
                    "distance": 1884.8424985883466
                }
            ],
            "total_duration_s": "PT24H10M",
            "total_distance_km": 3637.713223413738
        }
    ]
}