{
    "origin": "Pisa",
    "destination": "Oslo",
    "alternatives": [
        {
            "type": "rail",
            "legs": [
                {
                    "start": {
                        "name": "PISA CENTRALE (Italy)",
                        "lat": 43.708052,
                        "lon": 10.398056
                    },
                    "end": {
                        "name": "BOLOGNA CENTRALE (Italy)",
                        "lat": 44.506393,
                        "lon": 11.341942
                    },
                    "time_s": 7020.0
                },
                {
                    "start": {
                        "name": "BOLOGNA CENTRALE (Italy)",
                        "lat": 44.506393,
                        "lon": 11.341942
                    },
                    "end": {
                        "name": "INNSBRUCK HBF (Austria)",
                        "lat": 47.263331,
                        "lon": 11.40056
                    },
                    "time_s": 17160.0
                },
                {
                    "start": {
                        "name": "INNSBRUCK HBF (Austria)",
                        "lat": 47.263331,
                        "lon": 11.40056
                    },
                    "end": {
                        "name": "HAMBURG HBF (Germany)",
                        "lat": 53.552778,
                        "lon": 10.006945
                    },
                    "time_s": 43380.0
                },
                {
                    "start": {
                        "name": "HAMBURG HBF (Germany)",
                        "lat": 53.552778,
                        "lon": 10.006945
                    },
                    "end": {
                        "name": "KOEBENHAVN H (Denmark)",
                        "lat": 55.673054,
                        "lon": 12.565553
                    },
                    "time_s": 16800.0
                },
                {
                    "start": {
                        "name": "KOEBENHAVN H (Denmark)",
                        "lat": 55.673054,
                        "lon": 12.565553
                    },
                    "end": {
                        "name": "Goteborg C (Sweden)",
                        "lat": 57.708886,
                        "lon": 11.973335
                    },
                    "time_s": 13980.0
                },
                {
                    "start": {
                        "name": "Goteborg C (Sweden)",
                        "lat": 57.708886,
                        "lon": 11.973335
                    },
                    "end": {
                        "name": "Kil (Sweden)",
                        "lat": 59.505003,
                        "lon": 13.316108
                    },
                    "time_s": 7800.0
                },
                {
                    "start": {
                        "name": "Kil (Sweden)",
                        "lat": 59.505003,
                        "lon": 13.316108
                    },
                    "end": {
                        "name": "KONGSVINGER (Norway)",
                        "lat": 60.187779,
                        "lon": 12.003889
                    },
                    "time_s": 5880.0
                },
                {
                    "start": {
                        "name": "KONGSVINGER (Norway)",
                        "lat": 60.187779,
                        "lon": 12.003889
                    },
                    "end": {
                        "name": "OSLO S (Norway)",
                        "lat": 59.910282,
                        "lon": 10.755279
                    },
                    "time_s": 4500.0
                }
            ],
            "total_duration_s": 159060.0,
            "total_distance_km": 2041.8352470696382
        },
        {
            "type": "air",
            "legs": [
                {
                    "start": {
                        "name": "PSA"
                    },
                    "end": {
                        "name": "AMS"
                    },
                    "aircraft": "73G",
                    "distance": 1045.7127477262484
                },
                {
                    "start": {
                        "name": "AMS"
                    },
                    "end": {
                        "name": "OSL"
                    },
                    "aircraft": "E90",
                    "distance": 959.1844590087999
                }
            ],
            "total_duration_s": "PT10H40M",
            "total_distance_km": 2004.8972067350483
        }
    ]
}