{
    "origin": "Prague",
    "destination": "Turin",
    "alternatives": [
        {
            "type": "rail",
            "legs": [
                {
                    "start": {
                        "name": "PRAGUE HLAVNI NADRAZI (Czech Republic)",
                        "lat": 50.081386,
                        "lon": 14.435274
                    },
                    "end": {
                        "name": "MUENCHEN HBF (Germany)",
                        "lat": 48.140274,
                        "lon": 11.55833
                    },
                    "time_s": 20400.0
                },
                {
                    "start": {
                        "name": "MUENCHEN HBF (Germany)",
                        "lat": 48.140274,
                        "lon": 11.55833
                    },
                    "end": {
                        "name": "VERONA PORTA NUOVA (Italy)",
                        "lat": 45.428336,
                        "lon": 10.98222
                    },
                    "time_s": 19440.0
                },
                {
                    "start": {
                        "name": "VERONA PORTA NUOVA (Italy)",
                        "lat": 45.428336,
                        "lon": 10.98222
                    },
                    "end": {
                        "name": "MILANO CENTRALE (Italy)",
                        "lat": 45.486388,
                        "lon": 9.204163
                    },
                    "time_s": 4980.0
                },
                {
                    "start": {
                        "name": "MILANO CENTRALE (Italy)",
                        "lat": 45.486388,
                        "lon": 9.204163
                    },
                    "end": {
                        "name": "MILANO P.GARIBALDI (Italy)",
                        "lat": 45.484725,
                        "lon": 9.187776
                    },
                    "time_s": 900.0
                },
                {
                    "start": {
                        "name": "MILANO P.GARIBALDI (Italy)",
                        "lat": 45.484725,
                        "lon": 9.187776
                    },
                    "end": {
                        "name": "TORINO PORTA SUSA (Italy)",
                        "lat": 45.07417,
                        "lon": 7.666945
                    },
                    "time_s": 3000.0
                }
            ],
            "total_duration_s": 52800.0,
            "total_distance_km": 872.9807717715635
        },
        {
            "type": "air",
            "legs": [
                {
                    "start": {
                        "name": "PRG"
                    },
                    "end": {
                        "name": "AMS"
                    },
                    "aircraft": "73H",
                    "distance": 705.00895445239
                },
                {
                    "start": {
                        "name": "AMS"
                    },
                    "end": {
                        "name": "TRN"
                    },
                    "aircraft": "E75",
                    "distance": 817.9997703198069
                }
            ],
            "total_duration_s": "PT16H45M",
            "total_distance_km": 1523.0087247721967
        }
    ]
}