{
    "origin": "Rome",
    "destination": "Stavanger",
    "alternatives": [
        {
            "type": "rail",
            "legs": [
                {
                    "start": {
                        "name": "ROMA TERMINI (Italy)",
                        "lat": 41.900555,
                        "lon": 12.501667
                    },
                    "end": {
                        "name": "BOLOGNA CENTRALE (Italy)",
                        "lat": 44.506393,
                        "lon": 11.341942
                    },
                    "time_s": 8580.0
                },
                {
                    "start": {
                        "name": "BOLOGNA CENTRALE (Italy)",
                        "lat": 44.506393,
                        "lon": 11.341942
                    },
                    "end": {
                        "name": "INNSBRUCK HBF (Austria)",
                        "lat": 47.263331,
                        "lon": 11.40056
                    },
                    "time_s": 17160.0
                },
                {
                    "start": {
                        "name": "INNSBRUCK HBF (Austria)",
                        "lat": 47.263331,
                        "lon": 11.40056
                    },
                    "end": {
                        "name": "HAMBURG HBF (Germany)",
                        "lat": 53.552778,
                        "lon": 10.006945
                    },
                    "time_s": 43380.0
                },
                {
                    "start": {
                        "name": "HAMBURG HBF (Germany)",
                        "lat": 53.552778,
                        "lon": 10.006945
                    },
                    "end": {
                        "name": "KOEBENHAVN H (Denmark)",
                        "lat": 55.673054,
                        "lon": 12.565553
                    },
                    "time_s": 16800.0
                },
                {
                    "start": {
                        "name": "KOEBENHAVN H (Denmark)",
                        "lat": 55.673054,
                        "lon": 12.565553
                    },
                    "end": {
                        "name": "Goteborg C (Sweden)",
                        "lat": 57.708886,
                        "lon": 11.973335
                    },
                    "time_s": 13980.0
                },
                {
                    "start": {
                        "name": "Goteborg C (Sweden)",
                        "lat": 57.708886,
                        "lon": 11.973335
                    },
                    "end": {
                        "name": "Kil (Sweden)",
                        "lat": 59.505003,
                        "lon": 13.316108
                    },
                    "time_s": 7800.0
                },
                {
                    "start": {
                        "name": "Kil (Sweden)",
                        "lat": 59.505003,
                        "lon": 13.316108
                    },
                    "end": {
                        "name": "KONGSVINGER (Norway)",
                        "lat": 60.187779,
                        "lon": 12.003889
                    },
                    "time_s": 5880.0
                },
                {
                    "start": {
                        "name": "KONGSVINGER (Norway)",
                        "lat": 60.187779,
                        "lon": 12.003889
                    },
                    "end": {
                        "name": "OSLO S (Norway)",
                        "lat": 59.910282,
                        "lon": 10.755279
                    },
                    "time_s": 4500.0
                },
                {
                    "start": {
                        "name": "OSLO S (Norway)",
                        "lat": 59.910282,
                        "lon": 10.755279
                    },
                    "end": {
                        "name": "STAVANGER (Norway)",
                        "lat": 58.966387,
                        "lon": 5.732781
                    },
                    "time_s": 30240.0
                }
            ],
            "total_duration_s": 189540.0,
            "total_distance_km": 2532.652866099959
        },
        {
            "type": "air",
            "legs": [
                {
                    "start": {
                        "name": "FCO"
                    },
                    "end": {
                        "name": "CPH"
                    },
                    "aircraft": "7M8",
                    "distance": 1536.7492517702917
                },
                {
                    "start": {
                        "name": "CPH"
                    },
                    "end": {
                        "name": "SVG"
                    },
                    "aircraft": "73H",
                    "distance": 555.8847887610021
                }
            ],
            "total_duration_s": "PT8H35M",
            "total_distance_km": 2092.634040531294
        }
    ]
}