{
    "origin": "Stuttgart",
    "destination": "Amsterdam",
    "alternatives": [
        {
            "type": "rail",
            "legs": [
                {
                    "start": {
                        "name": "STUTTGART HBF (Germany)",
                        "lat": 48.784171,
                        "lon": 9.181663
                    },
                    "end": {
                        "name": "MANNHEIM HBF (Germany)",
                        "lat": 49.479442,
                        "lon": 8.46889
                    },
                    "time_s": 2280.0
                },
                {
                    "start": {
                        "name": "MANNHEIM HBF (Germany)",
                        "lat": 49.479442,
                        "lon": 8.46889
                    },
                    "end": {
                        "name": "KOELN HBF (Germany)",
                        "lat": 50.943056,
                        "lon": 6.958613
                    },
                    "time_s": 5280.0
                },
                {
                    "start": {
                        "name": "KOELN HBF (Germany)",
                        "lat": 50.943056,
                        "lon": 6.958613
                    },
                    "end": {
                        "name": "MOENCHENGLADBACH HBF (Germany)",
                        "lat": 51.196669,
                        "lon": 6.446111
                    },
                    "time_s": 3240.0
                },
                {
                    "start": {
                        "name": "MOENCHENGLADBACH HBF (Germany)",
                        "lat": 51.196669,
                        "lon": 6.446111
                    },
                    "end": {
                        "name": "VENLO (Netherlands)",
                        "lat": 51.365001,
                        "lon": 6.17194
                    },
                    "time_s": 1860.0
                },
                {
                    "start": {
                        "name": "VENLO (Netherlands)",
                        "lat": 51.365001,
                        "lon": 6.17194
                    },
                    "end": {
                        "name": "EINDHOVEN CENTRAAL (Netherlands)",
                        "lat": 51.442218,
                        "lon": 5.480274
                    },
                    "time_s": 2340.0
                },
                {
                    "start": {
                        "name": "EINDHOVEN CENTRAAL (Netherlands)",
                        "lat": 51.442218,
                        "lon": 5.480274
                    },
                    "end": {
                        "name": "BOXTEL (Netherlands)",
                        "lat": 51.584724,
                        "lon": 5.319448
                    },
                    "time_s": 1920.0
                },
                {
                    "start": {
                        "name": "BOXTEL (Netherlands)",
                        "lat": 51.584724,
                        "lon": 5.319448
                    },
                    "end": {
                        "name": "AMSTERDAM CENTRAAL (Netherlands)",
                        "lat": 52.378607,
                        "lon": 4.900829
                    },
                    "time_s": 4140.0
                }
            ],
            "total_duration_s": 25080.0,
            "total_distance_km": 521.3323341985594
        },
        {
            "type": "air",
            "legs": [
                {
                    "start": {
                        "name": "STR"
                    },
                    "end": {
                        "name": "AMS"
                    },
                    "aircraft": "E90",
                    "distance": 511.0070666852393
                }
            ],
            "total_duration_s": "PT1H25M",
            "total_distance_km": 511.0070666852393
        }
    ]
}