{
    "origin": "Toulouse",
    "destination": "Newcastle",
    "alternatives": [
        {
            "type": "rail",
            "legs": [
                {
                    "start": {
                        "name": "TOULOUSE MATABIAU (France)",
                        "lat": 43.611113,
                        "lon": 1.45361
                    },
                    "end": {
                        "name": "PARIS MONTPARNASSE 1 ET 2 (France)",
                        "lat": 48.839724,
                        "lon": 2.318615
                    },
                    "time_s": 16320.0
                },
                {
                    "start": {
                        "name": "PARIS MONTPARNASSE 1 ET 2 (France)",
                        "lat": 48.839724,
                        "lon": 2.318615
                    },
                    "end": {
                        "name": "PARIS NORD (France)",
                        "lat": 48.880275,
                        "lon": 2.355282
                    },
                    "time_s": 3000.0
                },
                {
                    "start": {
                        "name": "PARIS NORD (France)",
                        "lat": 48.880275,
                        "lon": 2.355282
                    },
                    "end": {
                        "name": "PARIS NORD (France)",
                        "lat": 48.880275,
                        "lon": 2.355282
                    },
                    "time_s": 2100.0
                },
                {
                    "start": {
                        "name": "PARIS NORD (France)",
                        "lat": 48.880275,
                        "lon": 2.355282
                    },
                    "end": {
                        "name": "LONDON ST PANCRAS INTL (United Kingdom)",
                        "lat": 51.530555,
                        "lon": -0.125274
                    },
                    "time_s": 4620.0
                },
                {
                    "start": {
                        "name": "LONDON ST PANCRAS INTL (United Kingdom)",
                        "lat": 51.530555,
                        "lon": -0.125274
                    },
                    "end": {
                        "name": "LONDON KINGS CROSS (United Kingdom)",
                        "lat": 51.528335,
                        "lon": -0.12139
                    },
                    "time_s": 3060.0
                },
                {
                    "start": {
                        "name": "LONDON KINGS CROSS (United Kingdom)",
                        "lat": 51.528335,
                        "lon": -0.12139
                    },
                    "end": {
                        "name": "YORK (United Kingdom)",
                        "lat": 53.955,
                        "lon": -1.091668
                    },
                    "time_s": 6960.0
                },
                {
                    "start": {
                        "name": "YORK (United Kingdom)",
                        "lat": 53.955,
                        "lon": -1.091668
                    },
                    "end": {
                        "name": "NEWCASTLE (United Kingdom)",
                        "lat": 54.96528,
                        "lon": -1.615829
                    },
                    "time_s": 3600.0
                }
            ],
            "total_duration_s": 43620.0,
            "total_distance_km": 1329.2281526585166
        },
        {
            "type": "air",
            "legs": [
                {
                    "start": {
                        "name": "TLS"
                    },
                    "end": {
                        "name": "AMS"
                    },
                    "aircraft": "73W",
                    "distance": 997.4675773841553
                },
                {
                    "start": {
                        "name": "AMS"
                    },
                    "end": {
                        "name": "NCL"
                    },
                    "aircraft": "73H",
                    "distance": 522.0655873129657
                }
            ],
            "total_duration_s": "PT16H45M",
            "total_distance_km": 1519.533164697121
        }
    ]
}