{
    "origin": "Toulouse",
    "destination": "Naples",
    "alternatives": [
        {
            "type": "rail",
            "legs": [
                {
                    "start": {
                        "name": "TOULOUSE MATABIAU (France)",
                        "lat": 43.611113,
                        "lon": 1.45361
                    },
                    "end": {
                        "name": "NARBONNE (France)",
                        "lat": 43.190552,
                        "lon": 3.005552
                    },
                    "time_s": 5580.0
                },
                {
                    "start": {
                        "name": "NARBONNE (France)",
                        "lat": 43.190552,
                        "lon": 3.005552
                    },
                    "end": {
                        "name": "VALENCE TGV RHONE-ALPES SUD (France)",
                        "lat": 44.991388,
                        "lon": 4.978613
                    },
                    "time_s": 7800.0
                },
                {
                    "start": {
                        "name": "VALENCE TGV RHONE-ALPES SUD (France)",
                        "lat": 44.991388,
                        "lon": 4.978613
                    },
                    "end": {
                        "name": "CHAMBERY CHALLES LES EAUX (France)",
                        "lat": 45.570554,
                        "lon": 5.919999
                    },
                    "time_s": 6120.0
                },
                {
                    "start": {
                        "name": "CHAMBERY CHALLES LES EAUX (France)",
                        "lat": 45.570554,
                        "lon": 5.919999
                    },
                    "end": {
                        "name": "TORINO PORTA SUSA (Italy)",
                        "lat": 45.07417,
                        "lon": 7.666945
                    },
                    "time_s": 9060.0
                },
                {
                    "start": {
                        "name": "TORINO PORTA SUSA (Italy)",
                        "lat": 45.07417,
                        "lon": 7.666945
                    },
                    "end": {
                        "name": "BOLOGNA CENTRALE (Italy)",
                        "lat": 44.506393,
                        "lon": 11.341942
                    },
                    "time_s": 8640.0
                },
                {
                    "start": {
                        "name": "BOLOGNA CENTRALE (Italy)",
                        "lat": 44.506393,
                        "lon": 11.341942
                    },
                    "end": {
                        "name": "SALERNO (Italy)",
                        "lat": 40.674723,
                        "lon": 14.772774
                    },
                    "time_s": 29820.0
                },
                {
                    "start": {
                        "name": "SALERNO (Italy)",
                        "lat": 40.674723,
                        "lon": 14.772774
                    },
                    "end": {
                        "name": "NAPOLI CENTRALE (Italy)",
                        "lat": 40.85306,
                        "lon": 14.272776
                    },
                    "time_s": 2340.0
                }
            ],
            "total_duration_s": 78420.0,
            "total_distance_km": 1487.2650144913039
        },
        {
            "type": "air",
            "legs": [
                {
                    "start": {
                        "name": "TLS"
                    },
                    "end": {
                        "name": "CDG"
                    },
                    "aircraft": "321",
                    "distance": 605.509494881887
                },
                {
                    "start": {
                        "name": "CDG"
                    },
                    "end": {
                        "name": "NAP"
                    },
                    "aircraft": "223",
                    "distance": 1289.6075912362753
                }
            ],
            "total_duration_s": "PT5H25M",
            "total_distance_km": 1895.1170861181622
        }
    ]
}