{
    "origin": "Amsterdam",
    "destination": "Birmingham",
    "alternatives": [
        {
            "type": "rail",
            "legs": [
                {
                    "start": {
                        "name": "AMSTERDAM CENTRAAL (Netherlands)",
                        "lat": 52.378607,
                        "lon": 4.900829
                    },
                    "end": {
                        "name": "AMSTERDAM CENTRAAL (Netherlands)",
                        "lat": 52.378607,
                        "lon": 4.900829
                    },
                    "time_s": 2100.0
                },
                {
                    "start": {
                        "name": "AMSTERDAM CENTRAAL (Netherlands)",
                        "lat": 52.378607,
                        "lon": 4.900829
                    },
                    "end": {
                        "name": "LONDON ST PANCRAS INTL (United Kingdom)",
                        "lat": 51.530555,
                        "lon": -0.125274
                    },
                    "time_s": 11400.0
                },
                {
                    "start": {
                        "name": "LONDON ST PANCRAS INTL (United Kingdom)",
                        "lat": 51.530555,
                        "lon": -0.125274
                    },
                    "end": {
                        "name": "LONDON EUSTON (United Kingdom)",
                        "lat": 51.525836,
                        "lon": -0.133058
                    },
                    "time_s": 3600.0
                },
                {
                    "start": {
                        "name": "LONDON EUSTON (United Kingdom)",
                        "lat": 51.525836,
                        "lon": -0.133058
                    },
                    "end": {
                        "name": "RUGBY (United Kingdom)",
                        "lat": 52.376108,
                        "lon": -1.247775
                    },
                    "time_s": 2880.0
                },
                {
                    "start": {
                        "name": "RUGBY (United Kingdom)",
                        "lat": 52.376108,
                        "lon": -1.247775
                    },
                    "end": {
                        "name": "BIRMINGHAM INTERNATIONAL (United Kingdom)",
                        "lat": 52.449163,
                        "lon": -1.723331
                    },
                    "time_s": 1740.0
                }
            ],
            "total_duration_s": 22680.0,
            "total_distance_km": 512.5844572091117
        },
        {
            "type": "air",
            "legs": [
                {
                    "start": {
                        "name": "AMS"
                    },
                    "end": {
                        "name": "BHX"
                    },
                    "aircraft": "73H",
                    "distance": 442.13510441824076
                }
            ],
            "total_duration_s": "PT1H15M",
            "total_distance_km": 442.13510441824076
        }
    ]
}