{
    "origin": "Bergen",
    "destination": "Bologna",
    "alternatives": [
        {
            "type": "rail",
            "legs": [
                {
                    "start": {
                        "name": "MONS (Belgium)",
                        "lat": 50.453612,
                        "lon": 3.942498
                    },
                    "end": {
                        "name": "LIEGE-GUILLEMINS (Belgium)",
                        "lat": 50.624443,
                        "lon": 5.566669
                    },
                    "time_s": 7560.0
                },
                {
                    "start": {
                        "name": "LIEGE-GUILLEMINS (Belgium)",
                        "lat": 50.624443,
                        "lon": 5.566669
                    },
                    "end": {
                        "name": "FRANKFURT(M) FLUGHAFEN FERNBF (Germany)",
                        "lat": 50.053052,
                        "lon": 8.57028
                    },
                    "time_s": 7380.0
                },
                {
                    "start": {
                        "name": "FRANKFURT(M) FLUGHAFEN FERNBF (Germany)",
                        "lat": 50.053052,
                        "lon": 8.57028
                    },
                    "end": {
                        "name": "BASEL SBB (Switzerland)",
                        "lat": 47.547498,
                        "lon": 7.58944
                    },
                    "time_s": 10500.0
                },
                {
                    "start": {
                        "name": "BASEL SBB (Switzerland)",
                        "lat": 47.547498,
                        "lon": 7.58944
                    },
                    "end": {
                        "name": "CHIASSO (Switzerland)",
                        "lat": 45.832221,
                        "lon": 9.03139
                    },
                    "time_s": 12420.0
                },
                {
                    "start": {
                        "name": "CHIASSO (Switzerland)",
                        "lat": 45.832221,
                        "lon": 9.03139
                    },
                    "end": {
                        "name": "MILANO CENTRALE (Italy)",
                        "lat": 45.486388,
                        "lon": 9.204163
                    },
                    "time_s": 4080.0
                },
                {
                    "start": {
                        "name": "MILANO CENTRALE (Italy)",
                        "lat": 45.486388,
                        "lon": 9.204163
                    },
                    "end": {
                        "name": "BOLOGNA CENTRALE (Italy)",
                        "lat": 44.506393,
                        "lon": 11.341942
                    },
                    "time_s": 5220.0
                }
            ],
            "total_duration_s": 70380.0,
            "total_distance_km": 1087.6734578429816
        },
        {
            "type": "air",
            "legs": [
                {
                    "start": {
                        "name": "BGO"
                    },
                    "end": {
                        "name": "CPH"
                    },
                    "aircraft": "E95",
                    "distance": 679.5049826203726
                },
                {
                    "start": {
                        "name": "CPH"
                    },
                    "end": {
                        "name": "BLQ"
                    },
                    "aircraft": "CR9",
                    "distance": 1236.112545901911
                }
            ],
            "total_duration_s": "PT4H55M",
            "total_distance_km": 1915.6175285222837
        }
    ]
}