{
    "origin": "Bergen",
    "destination": "Hanover",
    "alternatives": [
        {
            "type": "rail",
            "legs": [
                {
                    "start": {
                        "name": "MONS (Belgium)",
                        "lat": 50.453612,
                        "lon": 3.942498
                    },
                    "end": {
                        "name": "LIEGE-GUILLEMINS (Belgium)",
                        "lat": 50.624443,
                        "lon": 5.566669
                    },
                    "time_s": 7560.0
                },
                {
                    "start": {
                        "name": "LIEGE-GUILLEMINS (Belgium)",
                        "lat": 50.624443,
                        "lon": 5.566669
                    },
                    "end": {
                        "name": "KOELN HBF (Germany)",
                        "lat": 50.943056,
                        "lon": 6.958613
                    },
                    "time_s": 4140.0
                },
                {
                    "start": {
                        "name": "KOELN HBF (Germany)",
                        "lat": 50.943056,
                        "lon": 6.958613
                    },
                    "end": {
                        "name": "HANNOVER HBF (Germany)",
                        "lat": 52.376665,
                        "lon": 9.741107
                    },
                    "time_s": 11280.0
                },
                {
                    "start": {
                        "name": "HANNOVER HBF (Germany)",
                        "lat": 52.376665,
                        "lon": 9.741107
                    },
                    "end": {
                        "name": "HANNOVER MESSE/LAATZEN (Germany)",
                        "lat": 52.316941,
                        "lon": 9.792777
                    },
                    "time_s": 420.0
                }
            ],
            "total_duration_s": 42420.0,
            "total_distance_km": 477.38774578528523
        },
        {
            "type": "air",
            "legs": [
                {
                    "start": {
                        "name": "BGO"
                    },
                    "end": {
                        "name": "FRA"
                    },
                    "aircraft": "32N",
                    "distance": 1160.1912891965585
                },
                {
                    "start": {
                        "name": "FRA"
                    },
                    "end": {
                        "name": "HAJ"
                    },
                    "aircraft": "32A",
                    "distance": 280.87165079142784
                }
            ],
            "total_duration_s": "PT16H35M",
            "total_distance_km": 1441.0629399879863
        }
    ]
}