{
    "origin": "Bergen",
    "destination": "Nice",
    "alternatives": [
        {
            "type": "rail",
            "legs": [
                {
                    "start": {
                        "name": "MONS (Belgium)",
                        "lat": 50.453612,
                        "lon": 3.942498
                    },
                    "end": {
                        "name": "ATH (Belgium)",
                        "lat": 50.626663,
                        "lon": 3.777222
                    },
                    "time_s": 1380.0
                },
                {
                    "start": {
                        "name": "ATH (Belgium)",
                        "lat": 50.626663,
                        "lon": 3.777222
                    },
                    "end": {
                        "name": "BRUXELLES-MIDI (Belgium)",
                        "lat": 50.835554,
                        "lon": 4.336387
                    },
                    "time_s": 2340.0
                },
                {
                    "start": {
                        "name": "BRUXELLES-MIDI (Belgium)",
                        "lat": 50.835554,
                        "lon": 4.336387
                    },
                    "end": {
                        "name": "PARIS NORD (France)",
                        "lat": 48.880275,
                        "lon": 2.355282
                    },
                    "time_s": 4920.0
                },
                {
                    "start": {
                        "name": "PARIS NORD (France)",
                        "lat": 48.880275,
                        "lon": 2.355282
                    },
                    "end": {
                        "name": "PARIS GARE DE LYON (France)",
                        "lat": 48.845001,
                        "lon": 2.373611
                    },
                    "time_s": 2400.0
                },
                {
                    "start": {
                        "name": "PARIS GARE DE LYON (France)",
                        "lat": 48.845001,
                        "lon": 2.373611
                    },
                    "end": {
                        "name": "NICE VILLE (France)",
                        "lat": 43.704448,
                        "lon": 7.261945
                    },
                    "time_s": 21600.0
                }
            ],
            "total_duration_s": 36180.0,
            "total_distance_km": 1015.7163433966799
        },
        {
            "type": "air",
            "legs": [
                {
                    "start": {
                        "name": "BGO"
                    },
                    "end": {
                        "name": "OSL"
                    },
                    "aircraft": "73H",
                    "distance": 324.7080661986591
                },
                {
                    "start": {
                        "name": "OSL"
                    },
                    "end": {
                        "name": "NCE"
                    },
                    "aircraft": "73H",
                    "distance": 1857.070583271903
                }
            ],
            "total_duration_s": "PT5H15M",
            "total_distance_km": 2181.778649470562
        }
    ]
}