{
    "origin": "Berlin",
    "destination": "Malaga",
    "alternatives": [
        {
            "type": "rail",
            "legs": [
                {
                    "start": {
                        "name": "BERLIN SUEDKREUZ (Germany)",
                        "lat": 52.474998,
                        "lon": 13.365279
                    },
                    "end": {
                        "name": "FRANKFURT(MAIN)HBF (Germany)",
                        "lat": 50.107221,
                        "lon": 8.663893
                    },
                    "time_s": 13680.0
                },
                {
                    "start": {
                        "name": "FRANKFURT(MAIN)HBF (Germany)",
                        "lat": 50.107221,
                        "lon": 8.663893
                    },
                    "end": {
                        "name": "KARLSRUHE HBF (Germany)",
                        "lat": 48.993611,
                        "lon": 8.402226
                    },
                    "time_s": 3780.0
                },
                {
                    "start": {
                        "name": "KARLSRUHE HBF (Germany)",
                        "lat": 48.993611,
                        "lon": 8.402226
                    },
                    "end": {
                        "name": "PARIS EST (France)",
                        "lat": 48.877497,
                        "lon": 2.358886
                    },
                    "time_s": 9240.0
                },
                {
                    "start": {
                        "name": "PARIS EST (France)",
                        "lat": 48.877497,
                        "lon": 2.358886
                    },
                    "end": {
                        "name": "PARIS GARE DE LYON (France)",
                        "lat": 48.845001,
                        "lon": 2.373611
                    },
                    "time_s": 3000.0
                },
                {
                    "start": {
                        "name": "PARIS GARE DE LYON (France)",
                        "lat": 48.845001,
                        "lon": 2.373611
                    },
                    "end": {
                        "name": "BARCELONA-SANTS (Spain)",
                        "lat": 41.379442,
                        "lon": 2.140556
                    },
                    "time_s": 24120.0
                },
                {
                    "start": {
                        "name": "BARCELONA-SANTS (Spain)",
                        "lat": 41.379442,
                        "lon": 2.140556
                    },
                    "end": {
                        "name": "MADRID-PUERTA DE ATOCHA (Spain)",
                        "lat": 40.406386,
                        "lon": -3.690836
                    },
                    "time_s": 12000.0
                },
                {
                    "start": {
                        "name": "MADRID-PUERTA DE ATOCHA (Spain)",
                        "lat": 40.406386,
                        "lon": -3.690836
                    },
                    "end": {
                        "name": "MALAGA MARIA ZAMBRANO (Spain)",
                        "lat": 36.711946,
                        "lon": -4.431943
                    },
                    "time_s": 10380.0
                }
            ],
            "total_duration_s": 111300.0,
            "total_distance_km": 2738.16089072135
        },
        {
            "type": "air",
            "legs": [
                {
                    "start": {
                        "name": "TXL"
                    },
                    "end": {
                        "name": "MUC"
                    },
                    "aircraft": "320",
                    "distance": 479.57554185086275
                },
                {
                    "start": {
                        "name": "MUC"
                    },
                    "end": {
                        "name": "AGP"
                    },
                    "aircraft": "32N",
                    "distance": 1854.9467527954828
                }
            ],
            "total_duration_s": "PT5H40M",
            "total_distance_km": 2334.5222946463455
        }
    ]
}