{
    "origin": "Berlin",
    "destination": "Barcelona",
    "alternatives": [
        {
            "type": "rail",
            "legs": [
                {
                    "start": {
                        "name": "BERLIN SUEDKREUZ (Germany)",
                        "lat": 52.474998,
                        "lon": 13.365279
                    },
                    "end": {
                        "name": "FRANKFURT(MAIN)HBF (Germany)",
                        "lat": 50.107221,
                        "lon": 8.663893
                    },
                    "time_s": 13680.0
                },
                {
                    "start": {
                        "name": "FRANKFURT(MAIN)HBF (Germany)",
                        "lat": 50.107221,
                        "lon": 8.663893
                    },
                    "end": {
                        "name": "KARLSRUHE HBF (Germany)",
                        "lat": 48.993611,
                        "lon": 8.402226
                    },
                    "time_s": 3780.0
                },
                {
                    "start": {
                        "name": "KARLSRUHE HBF (Germany)",
                        "lat": 48.993611,
                        "lon": 8.402226
                    },
                    "end": {
                        "name": "PARIS EST (France)",
                        "lat": 48.877497,
                        "lon": 2.358886
                    },
                    "time_s": 9240.0
                },
                {
                    "start": {
                        "name": "PARIS EST (France)",
                        "lat": 48.877497,
                        "lon": 2.358886
                    },
                    "end": {
                        "name": "PARIS GARE DE LYON (France)",
                        "lat": 48.845001,
                        "lon": 2.373611
                    },
                    "time_s": 3000.0
                },
                {
                    "start": {
                        "name": "PARIS GARE DE LYON (France)",
                        "lat": 48.845001,
                        "lon": 2.373611
                    },
                    "end": {
                        "name": "BARCELONA-SANTS (Spain)",
                        "lat": 41.379442,
                        "lon": 2.140556
                    },
                    "time_s": 24120.0
                }
            ],
            "total_duration_s": 56760.0,
            "total_distance_km": 1820.4817890438942
        },
        {
            "type": "air",
            "legs": [
                {
                    "start": {
                        "name": "TXL"
                    },
                    "end": {
                        "name": "FRA"
                    },
                    "aircraft": "319",
                    "distance": 431.68306686036414
                },
                {
                    "start": {
                        "name": "FRA"
                    },
                    "end": {
                        "name": "BCN"
                    },
                    "aircraft": "32N",
                    "distance": 1093.6159549088497
                }
            ],
            "total_duration_s": "PT4H35M",
            "total_distance_km": 1525.2990217692138
        }
    ]
}