{
    "origin": "Bologna",
    "destination": "Warsaw",
    "alternatives": [
        {
            "type": "rail",
            "legs": [
                {
                    "start": {
                        "name": "BOLOGNA CENTRALE (Italy)",
                        "lat": 44.506393,
                        "lon": 11.341942
                    },
                    "end": {
                        "name": "VENEZIA MESTRE (Italy)",
                        "lat": 45.481948,
                        "lon": 12.231667
                    },
                    "time_s": 4920.0
                },
                {
                    "start": {
                        "name": "VENEZIA MESTRE (Italy)",
                        "lat": 45.481948,
                        "lon": 12.231667
                    },
                    "end": {
                        "name": "WIEN HBF (Austria)",
                        "lat": 48.185004,
                        "lon": 16.375829
                    },
                    "time_s": 26820.0
                },
                {
                    "start": {
                        "name": "WIEN HBF (Austria)",
                        "lat": 48.185004,
                        "lon": 16.375829
                    },
                    "end": {
                        "name": "KATOWICE (Poland)",
                        "lat": 50.257503,
                        "lon": 19.017219
                    },
                    "time_s": 17580.0
                },
                {
                    "start": {
                        "name": "KATOWICE (Poland)",
                        "lat": 50.257503,
                        "lon": 19.017219
                    },
                    "end": {
                        "name": "WARSZAWA GDANSKA (Poland)",
                        "lat": 52.258888,
                        "lon": 20.99472
                    },
                    "time_s": 12300.0
                },
                {
                    "start": {
                        "name": "WARSZAWA GDANSKA (Poland)",
                        "lat": 52.258888,
                        "lon": 20.99472
                    },
                    "end": {
                        "name": "WARSZAWA ZACHODNIA P8 (Poland)",
                        "lat": 52.2225,
                        "lon": 20.961388
                    },
                    "time_s": 600.0
                }
            ],
            "total_duration_s": 84180.0,
            "total_distance_km": 1130.6074596255282
        },
        {
            "type": "air",
            "legs": [
                {
                    "start": {
                        "name": "BLQ"
                    },
                    "end": {
                        "name": "CDG"
                    },
                    "aircraft": "319",
                    "distance": 830.244310772242
                },
                {
                    "start": {
                        "name": "CDG"
                    },
                    "end": {
                        "name": "WAW"
                    },
                    "aircraft": "320",
                    "distance": 1342.4949677851112
                }
            ],
            "total_duration_s": "PT25H30M",
            "total_distance_km": 2172.739278557353
        }
    ]
}