{
    "origin": "Cologne",
    "destination": "Eindhoven",
    "alternatives": [
        {
            "type": "rail",
            "legs": [
                {
                    "start": {
                        "name": "KOELN MESSE/DEUTZ (Germany)",
                        "lat": 50.940836,
                        "lon": 6.975
                    },
                    "end": {
                        "name": "DUESSELDORF HBF (Germany)",
                        "lat": 51.219996,
                        "lon": 6.794443
                    },
                    "time_s": 1140.0
                },
                {
                    "start": {
                        "name": "DUESSELDORF HBF (Germany)",
                        "lat": 51.219996,
                        "lon": 6.794443
                    },
                    "end": {
                        "name": "MOENCHENGLADBACH HBF (Germany)",
                        "lat": 51.196669,
                        "lon": 6.446111
                    },
                    "time_s": 2040.0
                },
                {
                    "start": {
                        "name": "MOENCHENGLADBACH HBF (Germany)",
                        "lat": 51.196669,
                        "lon": 6.446111
                    },
                    "end": {
                        "name": "VENLO (Netherlands)",
                        "lat": 51.365001,
                        "lon": 6.17194
                    },
                    "time_s": 1860.0
                },
                {
                    "start": {
                        "name": "VENLO (Netherlands)",
                        "lat": 51.365001,
                        "lon": 6.17194
                    },
                    "end": {
                        "name": "EINDHOVEN CENTRAAL (Netherlands)",
                        "lat": 51.442218,
                        "lon": 5.480274
                    },
                    "time_s": 2340.0
                }
            ],
            "total_duration_s": 9480.0,
            "total_distance_km": 133.37116915917676
        },
        {
            "type": "air",
            "legs": [
                {
                    "start": {
                        "name": "CGN"
                    },
                    "end": {
                        "name": "SAW"
                    },
                    "aircraft": "321",
                    "distance": 2030.3471340551168
                },
                {
                    "start": {
                        "name": "SAW"
                    },
                    "end": {
                        "name": "EIN"
                    },
                    "aircraft": "320",
                    "distance": 2169.3998052953457
                }
            ],
            "total_duration_s": "PT23H50M",
            "total_distance_km": 4199.7469393504625
        }
    ]
}