{
    "origin": "Florence",
    "destination": "Valencia",
    "alternatives": [
        {
            "type": "rail",
            "legs": [
                {
                    "start": {
                        "name": "FIRENZE S.M.N. (Italy)",
                        "lat": 43.776667,
                        "lon": 11.247501
                    },
                    "end": {
                        "name": "TORINO PORTA SUSA (Italy)",
                        "lat": 45.07417,
                        "lon": 7.666945
                    },
                    "time_s": 10920.0
                },
                {
                    "start": {
                        "name": "TORINO PORTA SUSA (Italy)",
                        "lat": 45.07417,
                        "lon": 7.666945
                    },
                    "end": {
                        "name": "LYON PART DIEU (France)",
                        "lat": 45.760281,
                        "lon": 4.858885
                    },
                    "time_s": 12660.0
                },
                {
                    "start": {
                        "name": "LYON PART DIEU (France)",
                        "lat": 45.760281,
                        "lon": 4.858885
                    },
                    "end": {
                        "name": "NARBONNE (France)",
                        "lat": 43.190552,
                        "lon": 3.005552
                    },
                    "time_s": 11340.0
                },
                {
                    "start": {
                        "name": "NARBONNE (France)",
                        "lat": 43.190552,
                        "lon": 3.005552
                    },
                    "end": {
                        "name": "BARCELONA-SANTS (Spain)",
                        "lat": 41.379442,
                        "lon": 2.140556
                    },
                    "time_s": 7260.0
                },
                {
                    "start": {
                        "name": "BARCELONA-SANTS (Spain)",
                        "lat": 41.379442,
                        "lon": 2.140556
                    },
                    "end": {
                        "name": "VALENCIA-ESTACIO DEL NORD (Spain)",
                        "lat": 39.465,
                        "lon": -0.377502
                    },
                    "time_s": 12900.0
                }
            ],
            "total_duration_s": 106680.0,
            "total_distance_km": 1387.007279299096
        },
        {
            "type": "air",
            "legs": [
                {
                    "start": {
                        "name": "FLR"
                    },
                    "end": {
                        "name": "ZRH"
                    },
                    "aircraft": "290",
                    "distance": 455.76671772285357
                },
                {
                    "start": {
                        "name": "ZRH"
                    },
                    "end": {
                        "name": "VLC"
                    },
                    "aircraft": "32N",
                    "distance": 1146.186989922285
                }
            ],
            "total_duration_s": "PT4H25M",
            "total_distance_km": 1601.9537076451386
        }
    ]
}