{
    "origin": "Frankfurt",
    "destination": "Edinburgh",
    "alternatives": [
        {
            "type": "rail",
            "legs": [
                {
                    "start": {
                        "name": "FRANKFURT(MAIN)HBF (Germany)",
                        "lat": 50.107221,
                        "lon": 8.663893
                    },
                    "end": {
                        "name": "KARLSRUHE HBF (Germany)",
                        "lat": 48.993611,
                        "lon": 8.402226
                    },
                    "time_s": 3960.0
                },
                {
                    "start": {
                        "name": "KARLSRUHE HBF (Germany)",
                        "lat": 48.993611,
                        "lon": 8.402226
                    },
                    "end": {
                        "name": "PARIS EST (France)",
                        "lat": 48.877497,
                        "lon": 2.358886
                    },
                    "time_s": 9180.0
                },
                {
                    "start": {
                        "name": "PARIS EST (France)",
                        "lat": 48.877497,
                        "lon": 2.358886
                    },
                    "end": {
                        "name": "PARIS NORD (France)",
                        "lat": 48.880275,
                        "lon": 2.355282
                    },
                    "time_s": 1800.0
                },
                {
                    "start": {
                        "name": "PARIS NORD (France)",
                        "lat": 48.880275,
                        "lon": 2.355282
                    },
                    "end": {
                        "name": "PARIS NORD (France)",
                        "lat": 48.880275,
                        "lon": 2.355282
                    },
                    "time_s": 2100.0
                },
                {
                    "start": {
                        "name": "PARIS NORD (France)",
                        "lat": 48.880275,
                        "lon": 2.355282
                    },
                    "end": {
                        "name": "LONDON ST PANCRAS INTL (United Kingdom)",
                        "lat": 51.530555,
                        "lon": -0.125274
                    },
                    "time_s": 4620.0
                },
                {
                    "start": {
                        "name": "LONDON ST PANCRAS INTL (United Kingdom)",
                        "lat": 51.530555,
                        "lon": -0.125274
                    },
                    "end": {
                        "name": "LONDON KINGS CROSS (United Kingdom)",
                        "lat": 51.528335,
                        "lon": -0.12139
                    },
                    "time_s": 3060.0
                },
                {
                    "start": {
                        "name": "LONDON KINGS CROSS (United Kingdom)",
                        "lat": 51.528335,
                        "lon": -0.12139
                    },
                    "end": {
                        "name": "EDINBURGH (United Kingdom)",
                        "lat": 55.949724,
                        "lon": -3.186667
                    },
                    "time_s": 17160.0
                }
            ],
            "total_duration_s": 44760.0,
            "total_distance_km": 1442.2525385722422
        },
        {
            "type": "air",
            "legs": [
                {
                    "start": {
                        "name": "FRA"
                    },
                    "end": {
                        "name": "EDI"
                    },
                    "aircraft": "321",
                    "distance": 1032.8551268878662
                }
            ],
            "total_duration_s": "PT1H55M",
            "total_distance_km": 1032.8551268878662
        }
    ]
}