{
    "origin": "Friedrichshafen",
    "destination": "Katowice",
    "alternatives": [
        {
            "type": "rail",
            "legs": [
                {
                    "start": {
                        "name": "FRIEDRICHSHAFEN STADT (Germany)",
                        "lat": 47.653337,
                        "lon": 9.473893
                    },
                    "end": {
                        "name": "ULM HBF (Germany)",
                        "lat": 48.399442,
                        "lon": 9.982224
                    },
                    "time_s": 4080.0
                },
                {
                    "start": {
                        "name": "ULM HBF (Germany)",
                        "lat": 48.399442,
                        "lon": 9.982224
                    },
                    "end": {
                        "name": "MUENCHEN HBF (Germany)",
                        "lat": 48.140274,
                        "lon": 11.55833
                    },
                    "time_s": 4620.0
                },
                {
                    "start": {
                        "name": "MUENCHEN HBF (Germany)",
                        "lat": 48.140274,
                        "lon": 11.55833
                    },
                    "end": {
                        "name": "WIEN HBF (Austria)",
                        "lat": 48.185004,
                        "lon": 16.375829
                    },
                    "time_s": 14460.0
                },
                {
                    "start": {
                        "name": "WIEN HBF (Austria)",
                        "lat": 48.185004,
                        "lon": 16.375829
                    },
                    "end": {
                        "name": "KATOWICE (Poland)",
                        "lat": 50.257503,
                        "lon": 19.017219
                    },
                    "time_s": 16800.0
                }
            ],
            "total_duration_s": 44340.0,
            "total_distance_km": 868.4204041973185
        },
        {
            "type": "air",
            "legs": [
                {
                    "start": {
                        "name": "FDH"
                    },
                    "end": {
                        "name": "FRA"
                    },
                    "aircraft": "CR9",
                    "distance": 271.51330066912493
                },
                {
                    "start": {
                        "name": "FRA"
                    },
                    "end": {
                        "name": "KTW"
                    },
                    "aircraft": "E90",
                    "distance": 748.1663164839514
                }
            ],
            "total_duration_s": "PT3H30M",
            "total_distance_km": 1019.6796171530764
        }
    ]
}