{
    "origin": "Friedrichshafen",
    "destination": "Turin",
    "alternatives": [
        {
            "type": "rail",
            "legs": [
                {
                    "start": {
                        "name": "FRIEDRICHSHAFEN STADT (Germany)",
                        "lat": 47.653337,
                        "lon": 9.473893
                    },
                    "end": {
                        "name": "SCHAFFHAUSEN (Switzerland)",
                        "lat": 47.698337,
                        "lon": 8.632782
                    },
                    "time_s": 6000.0
                },
                {
                    "start": {
                        "name": "SCHAFFHAUSEN (Switzerland)",
                        "lat": 47.698337,
                        "lon": 8.632782
                    },
                    "end": {
                        "name": "ZUERICH HB (Switzerland)",
                        "lat": 47.37806,
                        "lon": 8.540274
                    },
                    "time_s": 2160.0
                },
                {
                    "start": {
                        "name": "ZUERICH HB (Switzerland)",
                        "lat": 47.37806,
                        "lon": 8.540274
                    },
                    "end": {
                        "name": "MILANO CENTRALE (Italy)",
                        "lat": 45.486388,
                        "lon": 9.204163
                    },
                    "time_s": 11820.0
                },
                {
                    "start": {
                        "name": "MILANO CENTRALE (Italy)",
                        "lat": 45.486388,
                        "lon": 9.204163
                    },
                    "end": {
                        "name": "MILANO P.GARIBALDI (Italy)",
                        "lat": 45.484725,
                        "lon": 9.187776
                    },
                    "time_s": 900.0
                },
                {
                    "start": {
                        "name": "MILANO P.GARIBALDI (Italy)",
                        "lat": 45.484725,
                        "lon": 9.187776
                    },
                    "end": {
                        "name": "TORINO PORTA SUSA (Italy)",
                        "lat": 45.07417,
                        "lon": 7.666945
                    },
                    "time_s": 3000.0
                }
            ],
            "total_duration_s": 28800.0,
            "total_distance_km": 444.6026995831667
        },
        {
            "type": "air",
            "legs": [
                {
                    "start": {
                        "name": "FDH"
                    },
                    "end": {
                        "name": "FRA"
                    },
                    "aircraft": "CR9",
                    "distance": 271.51330066912493
                },
                {
                    "start": {
                        "name": "FRA"
                    },
                    "end": {
                        "name": "TRN"
                    },
                    "aircraft": "CR9",
                    "distance": 541.7570742962085
                }
            ],
            "total_duration_s": "PT18H25M",
            "total_distance_km": 813.2703749653335
        }
    ]
}