{
    "origin": "Genoa",
    "destination": "Oslo",
    "alternatives": [
        {
            "type": "rail",
            "legs": [
                {
                    "start": {
                        "name": "GENOVA P.ZA PRINCIPE (Italy)",
                        "lat": 44.417778,
                        "lon": 8.920553
                    },
                    "end": {
                        "name": "MILANO CENTRALE (Italy)",
                        "lat": 45.486388,
                        "lon": 9.204163
                    },
                    "time_s": 6120.0
                },
                {
                    "start": {
                        "name": "MILANO CENTRALE (Italy)",
                        "lat": 45.486388,
                        "lon": 9.204163
                    },
                    "end": {
                        "name": "FRANKFURT(MAIN)HBF (Germany)",
                        "lat": 50.107221,
                        "lon": 8.663893
                    },
                    "time_s": 26640.0
                },
                {
                    "start": {
                        "name": "FRANKFURT(MAIN)HBF (Germany)",
                        "lat": 50.107221,
                        "lon": 8.663893
                    },
                    "end": {
                        "name": "HAMBURG HBF (Germany)",
                        "lat": 53.552778,
                        "lon": 10.006945
                    },
                    "time_s": 14220.0
                },
                {
                    "start": {
                        "name": "HAMBURG HBF (Germany)",
                        "lat": 53.552778,
                        "lon": 10.006945
                    },
                    "end": {
                        "name": "Norrkoping C (Sweden)",
                        "lat": 58.596391,
                        "lon": 16.183334
                    },
                    "time_s": 46080.0
                },
                {
                    "start": {
                        "name": "Norrkoping C (Sweden)",
                        "lat": 58.596391,
                        "lon": 16.183334
                    },
                    "end": {
                        "name": "Katrineholm C (Sweden)",
                        "lat": 58.996393,
                        "lon": 16.208054
                    },
                    "time_s": 1500.0
                },
                {
                    "start": {
                        "name": "Katrineholm C (Sweden)",
                        "lat": 58.996393,
                        "lon": 16.208054
                    },
                    "end": {
                        "name": "Karlstad C (Sweden)",
                        "lat": 59.377779,
                        "lon": 13.498885
                    },
                    "time_s": 6060.0
                },
                {
                    "start": {
                        "name": "Karlstad C (Sweden)",
                        "lat": 59.377779,
                        "lon": 13.498885
                    },
                    "end": {
                        "name": "KONGSVINGER (Norway)",
                        "lat": 60.187779,
                        "lon": 12.003889
                    },
                    "time_s": 6540.0
                },
                {
                    "start": {
                        "name": "KONGSVINGER (Norway)",
                        "lat": 60.187779,
                        "lon": 12.003889
                    },
                    "end": {
                        "name": "OSLO S (Norway)",
                        "lat": 59.910282,
                        "lon": 10.755279
                    },
                    "time_s": 4620.0
                }
            ],
            "total_duration_s": 124680.0,
            "total_distance_km": 2112.3717478396766
        },
        {
            "type": "air",
            "legs": [
                {
                    "start": {
                        "name": "GOA"
                    },
                    "end": {
                        "name": "AMS"
                    },
                    "aircraft": "E75",
                    "distance": 927.6919610971468
                },
                {
                    "start": {
                        "name": "AMS"
                    },
                    "end": {
                        "name": "OSL"
                    },
                    "aircraft": "E90",
                    "distance": 959.1844590087999
                }
            ],
            "total_duration_s": "PT4H40M",
            "total_distance_km": 1886.8764201059466
        }
    ]
}