{
    "origin": "Genoa",
    "destination": "Southampton",
    "alternatives": [
        {
            "type": "rail",
            "legs": [
                {
                    "start": {
                        "name": "GENOVA P.ZA PRINCIPE (Italy)",
                        "lat": 44.417778,
                        "lon": 8.920553
                    },
                    "end": {
                        "name": "VENTIMIGLIA (Italy)",
                        "lat": 43.792218,
                        "lon": 7.610277
                    },
                    "time_s": 8400.0
                },
                {
                    "start": {
                        "name": "VENTIMIGLIA (Italy)",
                        "lat": 43.792218,
                        "lon": 7.610277
                    },
                    "end": {
                        "name": "NICE VILLE (France)",
                        "lat": 43.704448,
                        "lon": 7.261945
                    },
                    "time_s": 3480.0
                },
                {
                    "start": {
                        "name": "NICE VILLE (France)",
                        "lat": 43.704448,
                        "lon": 7.261945
                    },
                    "end": {
                        "name": "PARIS GARE DE LYON (France)",
                        "lat": 48.845001,
                        "lon": 2.373611
                    },
                    "time_s": 20880.0
                },
                {
                    "start": {
                        "name": "PARIS GARE DE LYON (France)",
                        "lat": 48.845001,
                        "lon": 2.373611
                    },
                    "end": {
                        "name": "PARIS NORD (France)",
                        "lat": 48.880275,
                        "lon": 2.355282
                    },
                    "time_s": 2400.0
                },
                {
                    "start": {
                        "name": "PARIS NORD (France)",
                        "lat": 48.880275,
                        "lon": 2.355282
                    },
                    "end": {
                        "name": "PARIS NORD (France)",
                        "lat": 48.880275,
                        "lon": 2.355282
                    },
                    "time_s": 2100.0
                },
                {
                    "start": {
                        "name": "PARIS NORD (France)",
                        "lat": 48.880275,
                        "lon": 2.355282
                    },
                    "end": {
                        "name": "LONDON ST PANCRAS INTL (United Kingdom)",
                        "lat": 51.530555,
                        "lon": -0.125274
                    },
                    "time_s": 4620.0
                },
                {
                    "start": {
                        "name": "LONDON ST PANCRAS INTL (United Kingdom)",
                        "lat": 51.530555,
                        "lon": -0.125274
                    },
                    "end": {
                        "name": "LONDON WATERLOO (United Kingdom)",
                        "lat": 51.499444,
                        "lon": -0.109722
                    },
                    "time_s": 4380.0
                },
                {
                    "start": {
                        "name": "LONDON WATERLOO (United Kingdom)",
                        "lat": 51.499444,
                        "lon": -0.109722
                    },
                    "end": {
                        "name": "SOUTHAMPTON AIRPORT (United Kingdom)",
                        "lat": 50.948612,
                        "lon": -1.362225
                    },
                    "time_s": 4920.0
                }
            ],
            "total_duration_s": 76140.0,
            "total_distance_km": 1296.7870939552747
        },
        {
            "type": "air",
            "legs": [
                {
                    "start": {
                        "name": "GOA"
                    },
                    "end": {
                        "name": "AMS"
                    },
                    "aircraft": "E75",
                    "distance": 927.6919610971468
                },
                {
                    "start": {
                        "name": "AMS"
                    },
                    "end": {
                        "name": "EDI"
                    },
                    "aircraft": "73H",
                    "distance": 666.3640081397747
                },
                {
                    "start": {
                        "name": "EDI"
                    },
                    "end": {
                        "name": "SOU"
                    },
                    "aircraft": "ER4",
                    "distance": 571.6764399966488
                }
            ],
            "total_duration_s": "PT19H15M",
            "total_distance_km": 2165.7324092335703
        }
    ]
}