{
    "origin": "Genoa",
    "destination": "Manchester",
    "alternatives": [
        {
            "type": "rail",
            "legs": [
                {
                    "start": {
                        "name": "GENOVA P.ZA PRINCIPE (Italy)",
                        "lat": 44.417778,
                        "lon": 8.920553
                    },
                    "end": {
                        "name": "VENTIMIGLIA (Italy)",
                        "lat": 43.792218,
                        "lon": 7.610277
                    },
                    "time_s": 8400.0
                },
                {
                    "start": {
                        "name": "VENTIMIGLIA (Italy)",
                        "lat": 43.792218,
                        "lon": 7.610277
                    },
                    "end": {
                        "name": "NICE VILLE (France)",
                        "lat": 43.704448,
                        "lon": 7.261945
                    },
                    "time_s": 3480.0
                },
                {
                    "start": {
                        "name": "NICE VILLE (France)",
                        "lat": 43.704448,
                        "lon": 7.261945
                    },
                    "end": {
                        "name": "PARIS GARE DE LYON (France)",
                        "lat": 48.845001,
                        "lon": 2.373611
                    },
                    "time_s": 20880.0
                },
                {
                    "start": {
                        "name": "PARIS GARE DE LYON (France)",
                        "lat": 48.845001,
                        "lon": 2.373611
                    },
                    "end": {
                        "name": "PARIS NORD (France)",
                        "lat": 48.880275,
                        "lon": 2.355282
                    },
                    "time_s": 2400.0
                },
                {
                    "start": {
                        "name": "PARIS NORD (France)",
                        "lat": 48.880275,
                        "lon": 2.355282
                    },
                    "end": {
                        "name": "PARIS NORD (France)",
                        "lat": 48.880275,
                        "lon": 2.355282
                    },
                    "time_s": 2100.0
                },
                {
                    "start": {
                        "name": "PARIS NORD (France)",
                        "lat": 48.880275,
                        "lon": 2.355282
                    },
                    "end": {
                        "name": "LONDON ST PANCRAS INTL (United Kingdom)",
                        "lat": 51.530555,
                        "lon": -0.125274
                    },
                    "time_s": 4620.0
                },
                {
                    "start": {
                        "name": "LONDON ST PANCRAS INTL (United Kingdom)",
                        "lat": 51.530555,
                        "lon": -0.125274
                    },
                    "end": {
                        "name": "LONDON KINGS CROSS (United Kingdom)",
                        "lat": 51.528335,
                        "lon": -0.12139
                    },
                    "time_s": 3060.0
                },
                {
                    "start": {
                        "name": "LONDON KINGS CROSS (United Kingdom)",
                        "lat": 51.528335,
                        "lon": -0.12139
                    },
                    "end": {
                        "name": "LEEDS (United Kingdom)",
                        "lat": 53.792223,
                        "lon": -1.547502
                    },
                    "time_s": 10560.0
                },
                {
                    "start": {
                        "name": "LEEDS (United Kingdom)",
                        "lat": 53.792223,
                        "lon": -1.547502
                    },
                    "end": {
                        "name": "MANCHESTER PICCADILLY (United Kingdom)",
                        "lat": 53.473888,
                        "lon": -2.2275
                    },
                    "time_s": 4980.0
                },
                {
                    "start": {
                        "name": "MANCHESTER PICCADILLY (United Kingdom)",
                        "lat": 53.473888,
                        "lon": -2.2275
                    },
                    "end": {
                        "name": "MANCHESTER OXFORD ROAD (United Kingdom)",
                        "lat": 53.471111,
                        "lon": -2.24111
                    },
                    "time_s": 120.0
                }
            ],
            "total_duration_s": 70860.0,
            "total_distance_km": 1514.4947146319132
        },
        {
            "type": "air",
            "legs": [
                {
                    "start": {
                        "name": "GOA"
                    },
                    "end": {
                        "name": "AMS"
                    },
                    "aircraft": "E75",
                    "distance": 927.6919610971468
                },
                {
                    "start": {
                        "name": "AMS"
                    },
                    "end": {
                        "name": "MAN"
                    },
                    "aircraft": "E75",
                    "distance": 486.7183834901679
                }
            ],
            "total_duration_s": "PT6H5M",
            "total_distance_km": 1414.4103445873147
        }
    ]
}