{
    "origin": "Genoa",
    "destination": "Katowice",
    "alternatives": [
        {
            "type": "rail",
            "legs": [
                {
                    "start": {
                        "name": "GENOVA P.ZA PRINCIPE (Italy)",
                        "lat": 44.417778,
                        "lon": 8.920553
                    },
                    "end": {
                        "name": "MILANO CENTRALE (Italy)",
                        "lat": 45.486388,
                        "lon": 9.204163
                    },
                    "time_s": 6600.0
                },
                {
                    "start": {
                        "name": "MILANO CENTRALE (Italy)",
                        "lat": 45.486388,
                        "lon": 9.204163
                    },
                    "end": {
                        "name": "VENEZIA MESTRE (Italy)",
                        "lat": 45.481948,
                        "lon": 12.231667
                    },
                    "time_s": 8700.0
                },
                {
                    "start": {
                        "name": "VENEZIA MESTRE (Italy)",
                        "lat": 45.481948,
                        "lon": 12.231667
                    },
                    "end": {
                        "name": "VILLACH HBF (Austria)",
                        "lat": 46.618607,
                        "lon": 13.848611
                    },
                    "time_s": 11400.0
                },
                {
                    "start": {
                        "name": "VILLACH HBF (Austria)",
                        "lat": 46.618607,
                        "lon": 13.848611
                    },
                    "end": {
                        "name": "WIENER NEUSTADT HBF (Austria)",
                        "lat": 47.810558,
                        "lon": 16.233053
                    },
                    "time_s": 13740.0
                },
                {
                    "start": {
                        "name": "WIENER NEUSTADT HBF (Austria)",
                        "lat": 47.810558,
                        "lon": 16.233053
                    },
                    "end": {
                        "name": "KATOWICE (Poland)",
                        "lat": 50.257503,
                        "lon": 19.017219
                    },
                    "time_s": 25620.0
                }
            ],
            "total_duration_s": 75120.0,
            "total_distance_km": 1097.5061044880613
        },
        {
            "type": "air",
            "legs": [
                {
                    "start": {
                        "name": "GOA"
                    },
                    "end": {
                        "name": "MUC"
                    },
                    "aircraft": "E95",
                    "distance": 493.00084332362337
                },
                {
                    "start": {
                        "name": "MUC"
                    },
                    "end": {
                        "name": "FRA"
                    },
                    "aircraft": "321",
                    "distance": 299.0786454580804
                },
                {
                    "start": {
                        "name": "FRA"
                    },
                    "end": {
                        "name": "KTW"
                    },
                    "aircraft": "E90",
                    "distance": 748.1663164839514
                }
            ],
            "total_duration_s": "PT24H45M",
            "total_distance_km": 1540.2458052656552
        }
    ]
}