{
    "origin": "Hamburg",
    "destination": "Bordeaux",
    "alternatives": [
        {
            "type": "rail",
            "legs": [
                {
                    "start": {
                        "name": "HAMBURG HBF (Germany)",
                        "lat": 53.552778,
                        "lon": 10.006945
                    },
                    "end": {
                        "name": "MANNHEIM HBF (Germany)",
                        "lat": 49.479442,
                        "lon": 8.46889
                    },
                    "time_s": 16980.0
                },
                {
                    "start": {
                        "name": "MANNHEIM HBF (Germany)",
                        "lat": 49.479442,
                        "lon": 8.46889
                    },
                    "end": {
                        "name": "PARIS EST (France)",
                        "lat": 48.877497,
                        "lon": 2.358886
                    },
                    "time_s": 12120.0
                },
                {
                    "start": {
                        "name": "PARIS EST (France)",
                        "lat": 48.877497,
                        "lon": 2.358886
                    },
                    "end": {
                        "name": "PARIS MONTPARNASSE 1 ET 2 (France)",
                        "lat": 48.839724,
                        "lon": 2.318615
                    },
                    "time_s": 3000.0
                },
                {
                    "start": {
                        "name": "PARIS MONTPARNASSE 1 ET 2 (France)",
                        "lat": 48.839724,
                        "lon": 2.318615
                    },
                    "end": {
                        "name": "BORDEAUX ST JEAN (France)",
                        "lat": 44.825834,
                        "lon": -0.556387
                    },
                    "time_s": 7860.0
                }
            ],
            "total_duration_s": 67620.0,
            "total_distance_km": 1416.3234394847616
        },
        {
            "type": "air",
            "legs": [
                {
                    "start": {
                        "name": "HAM"
                    },
                    "end": {
                        "name": "ATH"
                    },
                    "aircraft": "32N",
                    "distance": 2045.2237265943309
                },
                {
                    "start": {
                        "name": "ATH"
                    },
                    "end": {
                        "name": "BOD"
                    },
                    "aircraft": "320",
                    "distance": 2185.0594845505425
                }
            ],
            "total_duration_s": "PT28H30M",
            "total_distance_km": 4230.283211144873
        }
    ]
}