{
    "origin": "Hamburg",
    "destination": "Turin",
    "alternatives": [
        {
            "type": "rail",
            "legs": [
                {
                    "start": {
                        "name": "HAMBURG HBF (Germany)",
                        "lat": 53.552778,
                        "lon": 10.006945
                    },
                    "end": {
                        "name": "BASEL SBB (Switzerland)",
                        "lat": 47.547498,
                        "lon": 7.58944
                    },
                    "time_s": 24840.0
                },
                {
                    "start": {
                        "name": "BASEL SBB (Switzerland)",
                        "lat": 47.547498,
                        "lon": 7.58944
                    },
                    "end": {
                        "name": "CHIASSO (Switzerland)",
                        "lat": 45.832221,
                        "lon": 9.03139
                    },
                    "time_s": 12420.0
                },
                {
                    "start": {
                        "name": "CHIASSO (Switzerland)",
                        "lat": 45.832221,
                        "lon": 9.03139
                    },
                    "end": {
                        "name": "MILANO CENTRALE (Italy)",
                        "lat": 45.486388,
                        "lon": 9.204163
                    },
                    "time_s": 4080.0
                },
                {
                    "start": {
                        "name": "MILANO CENTRALE (Italy)",
                        "lat": 45.486388,
                        "lon": 9.204163
                    },
                    "end": {
                        "name": "TORINO PORTA SUSA (Italy)",
                        "lat": 45.07417,
                        "lon": 7.666945
                    },
                    "time_s": 3000.0
                }
            ],
            "total_duration_s": 63720.0,
            "total_distance_km": 1078.7497999470547
        },
        {
            "type": "air",
            "legs": [
                {
                    "start": {
                        "name": "HAM"
                    },
                    "end": {
                        "name": "AMS"
                    },
                    "aircraft": "73H",
                    "distance": 379.357426640726
                },
                {
                    "start": {
                        "name": "AMS"
                    },
                    "end": {
                        "name": "TRN"
                    },
                    "aircraft": "E75",
                    "distance": 817.9997703198069
                }
            ],
            "total_duration_s": "PT16H40M",
            "total_distance_km": 1197.3571969605327
        }
    ]
}