{
    "origin": "Lyon",
    "destination": "Porto",
    "alternatives": [
        {
            "type": "rail",
            "legs": [
                {
                    "start": {
                        "name": "LYON PERRACHE (France)",
                        "lat": 45.748613,
                        "lon": 4.825553
                    },
                    "end": {
                        "name": "AVIGNON TGV (France)",
                        "lat": 43.921663,
                        "lon": 4.78556
                    },
                    "time_s": 3840.0
                },
                {
                    "start": {
                        "name": "AVIGNON TGV (France)",
                        "lat": 43.921663,
                        "lon": 4.78556
                    },
                    "end": {
                        "name": "MADRID-PUERTA DE ATOCHA (Spain)",
                        "lat": 40.406386,
                        "lon": -3.690836
                    },
                    "time_s": 25500.0
                },
                {
                    "start": {
                        "name": "MADRID-PUERTA DE ATOCHA (Spain)",
                        "lat": 40.406386,
                        "lon": -3.690836
                    },
                    "end": {
                        "name": "MADRID-CHAMARTIN (Spain)",
                        "lat": 40.471109,
                        "lon": -3.682782
                    },
                    "time_s": 2700.0
                },
                {
                    "start": {
                        "name": "MADRID-CHAMARTIN (Spain)",
                        "lat": 40.471109,
                        "lon": -3.682782
                    },
                    "end": {
                        "name": "PONTEVEDRA (Spain)",
                        "lat": 42.421948,
                        "lon": -8.635559
                    },
                    "time_s": 15240.0
                },
                {
                    "start": {
                        "name": "PONTEVEDRA (Spain)",
                        "lat": 42.421948,
                        "lon": -8.635559
                    },
                    "end": {
                        "name": "VIGO GUIXAR (Spain)",
                        "lat": 42.239718,
                        "lon": -8.711114
                    },
                    "time_s": 1800.0
                },
                {
                    "start": {
                        "name": "VIGO GUIXAR (Spain)",
                        "lat": 42.239718,
                        "lon": -8.711114
                    },
                    "end": {
                        "name": "PORTO - CAMPANHA (Portugal)",
                        "lat": 41.149722,
                        "lon": -8.585552
                    },
                    "time_s": 4920.0
                }
            ],
            "total_duration_s": 98040.0,
            "total_distance_km": 1619.4327605700444
        },
        {
            "type": "air",
            "legs": [
                {
                    "start": {
                        "name": "LYS"
                    },
                    "end": {
                        "name": "LIS"
                    },
                    "aircraft": "E90",
                    "distance": 1398.717219384863
                },
                {
                    "start": {
                        "name": "LIS"
                    },
                    "end": {
                        "name": "OPO"
                    },
                    "aircraft": "E95",
                    "distance": 277.01257426570265
                }
            ],
            "total_duration_s": "PT4H25M",
            "total_distance_km": 1675.7297936505656
        }
    ]
}