{
    "origin": "Milan",
    "destination": "Belgrade",
    "alternatives": [
        {
            "type": "rail",
            "legs": [
                {
                    "start": {
                        "name": "MILANO CENTRALE (Italy)",
                        "lat": 45.486388,
                        "lon": 9.204163
                    },
                    "end": {
                        "name": "GENEVE (Switzerland)",
                        "lat": 46.210281,
                        "lon": 6.1425
                    },
                    "time_s": 14460.0
                },
                {
                    "start": {
                        "name": "GENEVE (Switzerland)",
                        "lat": 46.210281,
                        "lon": 6.1425
                    },
                    "end": {
                        "name": "PARIS GARE DE LYON (France)",
                        "lat": 48.845001,
                        "lon": 2.373611
                    },
                    "time_s": 11640.0
                },
                {
                    "start": {
                        "name": "PARIS GARE DE LYON (France)",
                        "lat": 48.845001,
                        "lon": 2.373611
                    },
                    "end": {
                        "name": "PARIS NORD (France)",
                        "lat": 48.880275,
                        "lon": 2.355282
                    },
                    "time_s": 2400.0
                },
                {
                    "start": {
                        "name": "PARIS NORD (France)",
                        "lat": 48.880275,
                        "lon": 2.355282
                    },
                    "end": {
                        "name": "BRUXELLES-MIDI (Belgium)",
                        "lat": 50.835554,
                        "lon": 4.336387
                    },
                    "time_s": 4920.0
                },
                {
                    "start": {
                        "name": "BRUXELLES-MIDI (Belgium)",
                        "lat": 50.835554,
                        "lon": 4.336387
                    },
                    "end": {
                        "name": "GRAMMONT (Belgium)",
                        "lat": 50.771111,
                        "lon": 3.87222
                    },
                    "time_s": 2460.0
                }
            ],
            "total_duration_s": 36840.0,
            "total_distance_km": 954.8355154253255
        },
        {
            "type": "air",
            "legs": [
                {
                    "start": {
                        "name": "MXP"
                    },
                    "end": {
                        "name": "BEG"
                    },
                    "aircraft": "319",
                    "distance": 910.6802525030171
                }
            ],
            "total_duration_s": "PT1H40M",
            "total_distance_km": 910.6802525030171
        }
    ]
}