{
    "origin": "Milan",
    "destination": "Toulouse",
    "alternatives": [
        {
            "type": "rail",
            "legs": [
                {
                    "start": {
                        "name": "MILANO CENTRALE (Italy)",
                        "lat": 45.486388,
                        "lon": 9.204163
                    },
                    "end": {
                        "name": "GENEVE (Switzerland)",
                        "lat": 46.210281,
                        "lon": 6.1425
                    },
                    "time_s": 14460.0
                },
                {
                    "start": {
                        "name": "GENEVE (Switzerland)",
                        "lat": 46.210281,
                        "lon": 6.1425
                    },
                    "end": {
                        "name": "LYON PART DIEU (France)",
                        "lat": 45.760281,
                        "lon": 4.858885
                    },
                    "time_s": 7020.0
                },
                {
                    "start": {
                        "name": "LYON PART DIEU (France)",
                        "lat": 45.760281,
                        "lon": 4.858885
                    },
                    "end": {
                        "name": "NARBONNE (France)",
                        "lat": 43.190552,
                        "lon": 3.005552
                    },
                    "time_s": 10380.0
                },
                {
                    "start": {
                        "name": "NARBONNE (France)",
                        "lat": 43.190552,
                        "lon": 3.005552
                    },
                    "end": {
                        "name": "TOULOUSE MATABIAU (France)",
                        "lat": 43.611113,
                        "lon": 1.45361
                    },
                    "time_s": 4380.0
                }
            ],
            "total_duration_s": 39300.0,
            "total_distance_km": 816.6414031873736
        },
        {
            "type": "air",
            "legs": [
                {
                    "start": {
                        "name": "MXP"
                    },
                    "end": {
                        "name": "ATH"
                    },
                    "aircraft": "321",
                    "distance": 1520.3518219562445
                },
                {
                    "start": {
                        "name": "ATH"
                    },
                    "end": {
                        "name": "TLS"
                    },
                    "aircraft": "32N",
                    "distance": 1996.3838312520882
                }
            ],
            "total_duration_s": "PT16H5M",
            "total_distance_km": 3516.7356532083327
        }
    ]
}