{
    "origin": "Milan",
    "destination": "Birmingham",
    "alternatives": [
        {
            "type": "rail",
            "legs": [
                {
                    "start": {
                        "name": "MILANO CENTRALE (Italy)",
                        "lat": 45.486388,
                        "lon": 9.204163
                    },
                    "end": {
                        "name": "GENEVE (Switzerland)",
                        "lat": 46.210281,
                        "lon": 6.1425
                    },
                    "time_s": 14460.0
                },
                {
                    "start": {
                        "name": "GENEVE (Switzerland)",
                        "lat": 46.210281,
                        "lon": 6.1425
                    },
                    "end": {
                        "name": "PARIS GARE DE LYON (France)",
                        "lat": 48.845001,
                        "lon": 2.373611
                    },
                    "time_s": 11640.0
                },
                {
                    "start": {
                        "name": "PARIS GARE DE LYON (France)",
                        "lat": 48.845001,
                        "lon": 2.373611
                    },
                    "end": {
                        "name": "PARIS NORD (France)",
                        "lat": 48.880275,
                        "lon": 2.355282
                    },
                    "time_s": 2400.0
                },
                {
                    "start": {
                        "name": "PARIS NORD (France)",
                        "lat": 48.880275,
                        "lon": 2.355282
                    },
                    "end": {
                        "name": "PARIS NORD (France)",
                        "lat": 48.880275,
                        "lon": 2.355282
                    },
                    "time_s": 2100.0
                },
                {
                    "start": {
                        "name": "PARIS NORD (France)",
                        "lat": 48.880275,
                        "lon": 2.355282
                    },
                    "end": {
                        "name": "LONDON ST PANCRAS INTL (United Kingdom)",
                        "lat": 51.530555,
                        "lon": -0.125274
                    },
                    "time_s": 4620.0
                },
                {
                    "start": {
                        "name": "LONDON ST PANCRAS INTL (United Kingdom)",
                        "lat": 51.530555,
                        "lon": -0.125274
                    },
                    "end": {
                        "name": "LONDON EUSTON (United Kingdom)",
                        "lat": 51.525836,
                        "lon": -0.133058
                    },
                    "time_s": 3600.0
                },
                {
                    "start": {
                        "name": "LONDON EUSTON (United Kingdom)",
                        "lat": 51.525836,
                        "lon": -0.133058
                    },
                    "end": {
                        "name": "BIRMINGHAM INTERNATIONAL (United Kingdom)",
                        "lat": 52.449163,
                        "lon": -1.723331
                    },
                    "time_s": 4200.0
                }
            ],
            "total_duration_s": 45180.0,
            "total_distance_km": 1155.664081938911
        },
        {
            "type": "air",
            "legs": [
                {
                    "start": {
                        "name": "MXP"
                    },
                    "end": {
                        "name": "DUS"
                    },
                    "aircraft": "32A",
                    "distance": 645.5839113848276
                },
                {
                    "start": {
                        "name": "DUS"
                    },
                    "end": {
                        "name": "BHX"
                    },
                    "aircraft": "320",
                    "distance": 598.364427071855
                }
            ],
            "total_duration_s": "PT11H10M",
            "total_distance_km": 1243.9483384566824
        }
    ]
}