{
    "origin": "Milan",
    "destination": "Granada",
    "alternatives": [
        {
            "type": "rail",
            "legs": [
                {
                    "start": {
                        "name": "MILANO CENTRALE (Italy)",
                        "lat": 45.486388,
                        "lon": 9.204163
                    },
                    "end": {
                        "name": "GENEVE (Switzerland)",
                        "lat": 46.210281,
                        "lon": 6.1425
                    },
                    "time_s": 14460.0
                },
                {
                    "start": {
                        "name": "GENEVE (Switzerland)",
                        "lat": 46.210281,
                        "lon": 6.1425
                    },
                    "end": {
                        "name": "LYON PART DIEU (France)",
                        "lat": 45.760281,
                        "lon": 4.858885
                    },
                    "time_s": 7020.0
                },
                {
                    "start": {
                        "name": "LYON PART DIEU (France)",
                        "lat": 45.760281,
                        "lon": 4.858885
                    },
                    "end": {
                        "name": "BARCELONA-SANTS (Spain)",
                        "lat": 41.379442,
                        "lon": 2.140556
                    },
                    "time_s": 17820.0
                },
                {
                    "start": {
                        "name": "BARCELONA-SANTS (Spain)",
                        "lat": 41.379442,
                        "lon": 2.140556
                    },
                    "end": {
                        "name": "MADRID-PUERTA DE ATOCHA (Spain)",
                        "lat": 40.406386,
                        "lon": -3.690836
                    },
                    "time_s": 11820.0
                },
                {
                    "start": {
                        "name": "MADRID-PUERTA DE ATOCHA (Spain)",
                        "lat": 40.406386,
                        "lon": -3.690836
                    },
                    "end": {
                        "name": "GRANADA (Spain)",
                        "lat": 37.184167,
                        "lon": -3.609169
                    },
                    "time_s": 12240.0
                }
            ],
            "total_duration_s": 97140.0,
            "total_distance_km": 1755.7186216085702
        },
        {
            "type": "air",
            "legs": [
                {
                    "start": {
                        "name": "MXP"
                    },
                    "end": {
                        "name": "BCN"
                    },
                    "aircraft": "321",
                    "distance": 720.795265287506
                },
                {
                    "start": {
                        "name": "BCN"
                    },
                    "end": {
                        "name": "GRX"
                    },
                    "aircraft": "32A",
                    "distance": 680.1377802099852
                }
            ],
            "total_duration_s": "PT4H",
            "total_distance_km": 1400.933045497491
        }
    ]
}