{
    "origin": "Munich",
    "destination": "Newcastle",
    "alternatives": [
        {
            "type": "rail",
            "legs": [
                {
                    "start": {
                        "name": "MUENCHEN HBF (Germany)",
                        "lat": 48.140274,
                        "lon": 11.55833
                    },
                    "end": {
                        "name": "STUTTGART HBF (Germany)",
                        "lat": 48.784171,
                        "lon": 9.181663
                    },
                    "time_s": 8280.0
                },
                {
                    "start": {
                        "name": "STUTTGART HBF (Germany)",
                        "lat": 48.784171,
                        "lon": 9.181663
                    },
                    "end": {
                        "name": "PARIS EST (France)",
                        "lat": 48.877497,
                        "lon": 2.358886
                    },
                    "time_s": 11520.0
                },
                {
                    "start": {
                        "name": "PARIS EST (France)",
                        "lat": 48.877497,
                        "lon": 2.358886
                    },
                    "end": {
                        "name": "PARIS NORD (France)",
                        "lat": 48.880275,
                        "lon": 2.355282
                    },
                    "time_s": 1800.0
                },
                {
                    "start": {
                        "name": "PARIS NORD (France)",
                        "lat": 48.880275,
                        "lon": 2.355282
                    },
                    "end": {
                        "name": "PARIS NORD (France)",
                        "lat": 48.880275,
                        "lon": 2.355282
                    },
                    "time_s": 2100.0
                },
                {
                    "start": {
                        "name": "PARIS NORD (France)",
                        "lat": 48.880275,
                        "lon": 2.355282
                    },
                    "end": {
                        "name": "LONDON ST PANCRAS INTL (United Kingdom)",
                        "lat": 51.530555,
                        "lon": -0.125274
                    },
                    "time_s": 4620.0
                },
                {
                    "start": {
                        "name": "LONDON ST PANCRAS INTL (United Kingdom)",
                        "lat": 51.530555,
                        "lon": -0.125274
                    },
                    "end": {
                        "name": "LONDON KINGS CROSS (United Kingdom)",
                        "lat": 51.528335,
                        "lon": -0.12139
                    },
                    "time_s": 3060.0
                },
                {
                    "start": {
                        "name": "LONDON KINGS CROSS (United Kingdom)",
                        "lat": 51.528335,
                        "lon": -0.12139
                    },
                    "end": {
                        "name": "NEWCASTLE (United Kingdom)",
                        "lat": 54.96528,
                        "lon": -1.615829
                    },
                    "time_s": 13980.0
                }
            ],
            "total_duration_s": 48360.0,
            "total_distance_km": 1427.7729234485334
        },
        {
            "type": "air",
            "legs": [
                {
                    "start": {
                        "name": "MUC"
                    },
                    "end": {
                        "name": "DUS"
                    },
                    "aircraft": "320",
                    "distance": 485.82345364362175
                },
                {
                    "start": {
                        "name": "DUS"
                    },
                    "end": {
                        "name": "NCL"
                    },
                    "aircraft": "32A",
                    "distance": 700.4026579078931
                }
            ],
            "total_duration_s": "PT7H",
            "total_distance_km": 1186.2261115515148
        }
    ]
}