{
    "origin": "Naples",
    "destination": "Krak\u00f3w",
    "alternatives": [
        {
            "type": "rail",
            "legs": [
                {
                    "start": {
                        "name": "NAPOLI CENTRALE (Italy)",
                        "lat": 40.85306,
                        "lon": 14.272776
                    },
                    "end": {
                        "name": "VENEZIA MESTRE (Italy)",
                        "lat": 45.481948,
                        "lon": 12.231667
                    },
                    "time_s": 18840.0
                },
                {
                    "start": {
                        "name": "VENEZIA MESTRE (Italy)",
                        "lat": 45.481948,
                        "lon": 12.231667
                    },
                    "end": {
                        "name": "VILLACH HBF (Austria)",
                        "lat": 46.618607,
                        "lon": 13.848611
                    },
                    "time_s": 11400.0
                },
                {
                    "start": {
                        "name": "VILLACH HBF (Austria)",
                        "lat": 46.618607,
                        "lon": 13.848611
                    },
                    "end": {
                        "name": "WIENER NEUSTADT HBF (Austria)",
                        "lat": 47.810558,
                        "lon": 16.233053
                    },
                    "time_s": 13740.0
                },
                {
                    "start": {
                        "name": "WIENER NEUSTADT HBF (Austria)",
                        "lat": 47.810558,
                        "lon": 16.233053
                    },
                    "end": {
                        "name": "KRAKOW GLOWNY (Poland)",
                        "lat": 50.068334,
                        "lon": 19.947504
                    },
                    "time_s": 29460.0
                }
            ],
            "total_duration_s": 77820.0,
            "total_distance_km": 1311.371438473382
        },
        {
            "type": "air",
            "legs": [
                {
                    "start": {
                        "name": "NAP"
                    },
                    "end": {
                        "name": "OSL"
                    },
                    "aircraft": "73H",
                    "distance": 2158.1379206318193
                },
                {
                    "start": {
                        "name": "OSL"
                    },
                    "end": {
                        "name": "KRK"
                    },
                    "aircraft": "73H",
                    "distance": 1250.583618299244
                }
            ],
            "total_duration_s": "PT22H30M",
            "total_distance_km": 3408.721538931063
        }
    ]
}