{
    "origin": "Naples",
    "destination": "Glasgow",
    "alternatives": [
        {
            "type": "rail",
            "legs": [
                {
                    "start": {
                        "name": "NAPOLI CENTRALE (Italy)",
                        "lat": 40.85306,
                        "lon": 14.272776
                    },
                    "end": {
                        "name": "MILANO CENTRALE (Italy)",
                        "lat": 45.486388,
                        "lon": 9.204163
                    },
                    "time_s": 19500.0
                },
                {
                    "start": {
                        "name": "MILANO CENTRALE (Italy)",
                        "lat": 45.486388,
                        "lon": 9.204163
                    },
                    "end": {
                        "name": "BASEL SBB (Switzerland)",
                        "lat": 47.547498,
                        "lon": 7.58944
                    },
                    "time_s": 15120.0
                },
                {
                    "start": {
                        "name": "BASEL SBB (Switzerland)",
                        "lat": 47.547498,
                        "lon": 7.58944
                    },
                    "end": {
                        "name": "MULHOUSE VILLE (France)",
                        "lat": 47.742501,
                        "lon": 7.343054
                    },
                    "time_s": 1860.0
                },
                {
                    "start": {
                        "name": "MULHOUSE VILLE (France)",
                        "lat": 47.742501,
                        "lon": 7.343054
                    },
                    "end": {
                        "name": "STRASBOURG (France)",
                        "lat": 48.584997,
                        "lon": 7.734723
                    },
                    "time_s": 4200.0
                },
                {
                    "start": {
                        "name": "STRASBOURG (France)",
                        "lat": 48.584997,
                        "lon": 7.734723
                    },
                    "end": {
                        "name": "PARIS EST (France)",
                        "lat": 48.877497,
                        "lon": 2.358886
                    },
                    "time_s": 11400.0
                },
                {
                    "start": {
                        "name": "PARIS EST (France)",
                        "lat": 48.877497,
                        "lon": 2.358886
                    },
                    "end": {
                        "name": "PARIS NORD (France)",
                        "lat": 48.880275,
                        "lon": 2.355282
                    },
                    "time_s": 1800.0
                },
                {
                    "start": {
                        "name": "PARIS NORD (France)",
                        "lat": 48.880275,
                        "lon": 2.355282
                    },
                    "end": {
                        "name": "PARIS NORD (France)",
                        "lat": 48.880275,
                        "lon": 2.355282
                    },
                    "time_s": 2100.0
                },
                {
                    "start": {
                        "name": "PARIS NORD (France)",
                        "lat": 48.880275,
                        "lon": 2.355282
                    },
                    "end": {
                        "name": "LONDON ST PANCRAS INTL (United Kingdom)",
                        "lat": 51.530555,
                        "lon": -0.125274
                    },
                    "time_s": 4620.0
                },
                {
                    "start": {
                        "name": "LONDON ST PANCRAS INTL (United Kingdom)",
                        "lat": 51.530555,
                        "lon": -0.125274
                    },
                    "end": {
                        "name": "LONDON EUSTON (United Kingdom)",
                        "lat": 51.525836,
                        "lon": -0.133058
                    },
                    "time_s": 3600.0
                },
                {
                    "start": {
                        "name": "LONDON EUSTON (United Kingdom)",
                        "lat": 51.525836,
                        "lon": -0.133058
                    },
                    "end": {
                        "name": "GLASGOW CENTRAL (United Kingdom)",
                        "lat": 55.857504,
                        "lon": -4.257777
                    },
                    "time_s": 16860.0
                }
            ],
            "total_duration_s": 102660.0,
            "total_distance_km": 2338.6072531559316
        },
        {
            "type": "air",
            "legs": [
                {
                    "start": {
                        "name": "NAP"
                    },
                    "end": {
                        "name": "FRA"
                    },
                    "aircraft": "32N",
                    "distance": 1109.8618177062826
                },
                {
                    "start": {
                        "name": "FRA"
                    },
                    "end": {
                        "name": "GLA"
                    },
                    "aircraft": "32N",
                    "distance": 1083.5988537205383
                }
            ],
            "total_duration_s": "PT18H20M",
            "total_distance_km": 2193.460671426821
        }
    ]
}