{
    "origin": "Nuremberg",
    "destination": "Amsterdam",
    "alternatives": [
        {
            "type": "rail",
            "legs": [
                {
                    "start": {
                        "name": "NUERNBERG HBF (Germany)",
                        "lat": 49.445552,
                        "lon": 11.083052
                    },
                    "end": {
                        "name": "KOELN MESSE/DEUTZ GL.11-12 (Germany)",
                        "lat": 50.941663,
                        "lon": 6.974164
                    },
                    "time_s": 13200.0
                },
                {
                    "start": {
                        "name": "KOELN MESSE/DEUTZ GL.11-12 (Germany)",
                        "lat": 50.941663,
                        "lon": 6.974164
                    },
                    "end": {
                        "name": "KOELN MESSE/DEUTZ (Germany)",
                        "lat": 50.940836,
                        "lon": 6.975
                    },
                    "time_s": 420.0
                },
                {
                    "start": {
                        "name": "KOELN MESSE/DEUTZ (Germany)",
                        "lat": 50.940836,
                        "lon": 6.975
                    },
                    "end": {
                        "name": "KOELN HBF (Germany)",
                        "lat": 50.943056,
                        "lon": 6.958613
                    },
                    "time_s": 180.0
                },
                {
                    "start": {
                        "name": "KOELN HBF (Germany)",
                        "lat": 50.943056,
                        "lon": 6.958613
                    },
                    "end": {
                        "name": "BRUXELLES-MIDI (Belgium)",
                        "lat": 50.835554,
                        "lon": 4.336387
                    },
                    "time_s": 6720.0
                },
                {
                    "start": {
                        "name": "BRUXELLES-MIDI (Belgium)",
                        "lat": 50.835554,
                        "lon": 4.336387
                    },
                    "end": {
                        "name": "AMSTERDAM CENTRAAL (Netherlands)",
                        "lat": 52.378607,
                        "lon": 4.900829
                    },
                    "time_s": 6720.0
                }
            ],
            "total_duration_s": 29340.0,
            "total_distance_km": 697.972707169704
        },
        {
            "type": "air",
            "legs": [
                {
                    "start": {
                        "name": "NUE"
                    },
                    "end": {
                        "name": "AMS"
                    },
                    "aircraft": "E75",
                    "distance": 541.5968895724073
                }
            ],
            "total_duration_s": "PT1H20M",
            "total_distance_km": 541.5968895724073
        }
    ]
}