{
    "origin": "Nuremberg",
    "destination": "Oslo",
    "alternatives": [
        {
            "type": "rail",
            "legs": [
                {
                    "start": {
                        "name": "NUERNBERG HBF (Germany)",
                        "lat": 49.445552,
                        "lon": 11.083052
                    },
                    "end": {
                        "name": "HAMBURG HBF (Germany)",
                        "lat": 53.552778,
                        "lon": 10.006945
                    },
                    "time_s": 19740.0
                },
                {
                    "start": {
                        "name": "HAMBURG HBF (Germany)",
                        "lat": 53.552778,
                        "lon": 10.006945
                    },
                    "end": {
                        "name": "Norrkoping C (Sweden)",
                        "lat": 58.596391,
                        "lon": 16.183334
                    },
                    "time_s": 46080.0
                },
                {
                    "start": {
                        "name": "Norrkoping C (Sweden)",
                        "lat": 58.596391,
                        "lon": 16.183334
                    },
                    "end": {
                        "name": "Katrineholm C (Sweden)",
                        "lat": 58.996393,
                        "lon": 16.208054
                    },
                    "time_s": 1500.0
                },
                {
                    "start": {
                        "name": "Katrineholm C (Sweden)",
                        "lat": 58.996393,
                        "lon": 16.208054
                    },
                    "end": {
                        "name": "Karlstad C (Sweden)",
                        "lat": 59.377779,
                        "lon": 13.498885
                    },
                    "time_s": 6060.0
                },
                {
                    "start": {
                        "name": "Karlstad C (Sweden)",
                        "lat": 59.377779,
                        "lon": 13.498885
                    },
                    "end": {
                        "name": "KONGSVINGER (Norway)",
                        "lat": 60.187779,
                        "lon": 12.003889
                    },
                    "time_s": 6540.0
                },
                {
                    "start": {
                        "name": "KONGSVINGER (Norway)",
                        "lat": 60.187779,
                        "lon": 12.003889
                    },
                    "end": {
                        "name": "OSLO S (Norway)",
                        "lat": 59.910282,
                        "lon": 10.755279
                    },
                    "time_s": 4620.0
                }
            ],
            "total_duration_s": 93120.0,
            "total_distance_km": 1544.7321405646185
        },
        {
            "type": "air",
            "legs": [
                {
                    "start": {
                        "name": "NUE"
                    },
                    "end": {
                        "name": "AMS"
                    },
                    "aircraft": "E75",
                    "distance": 541.5968895724073
                },
                {
                    "start": {
                        "name": "AMS"
                    },
                    "end": {
                        "name": "OSL"
                    },
                    "aircraft": "E75",
                    "distance": 959.1844590087999
                }
            ],
            "total_duration_s": "PT3H45M",
            "total_distance_km": 1500.781348581207
        }
    ]
}