{
    "origin": "Nuremberg",
    "destination": "Barcelona",
    "alternatives": [
        {
            "type": "rail",
            "legs": [
                {
                    "start": {
                        "name": "NUERNBERG HBF (Germany)",
                        "lat": 49.445552,
                        "lon": 11.083052
                    },
                    "end": {
                        "name": "KARLSRUHE HBF (Germany)",
                        "lat": 48.993611,
                        "lon": 8.402226
                    },
                    "time_s": 11520.0
                },
                {
                    "start": {
                        "name": "KARLSRUHE HBF (Germany)",
                        "lat": 48.993611,
                        "lon": 8.402226
                    },
                    "end": {
                        "name": "PARIS EST (France)",
                        "lat": 48.877497,
                        "lon": 2.358886
                    },
                    "time_s": 9360.0
                },
                {
                    "start": {
                        "name": "PARIS EST (France)",
                        "lat": 48.877497,
                        "lon": 2.358886
                    },
                    "end": {
                        "name": "PARIS AUSTERLITZ (France)",
                        "lat": 48.841387,
                        "lon": 2.366392
                    },
                    "time_s": 2400.0
                },
                {
                    "start": {
                        "name": "PARIS AUSTERLITZ (France)",
                        "lat": 48.841387,
                        "lon": 2.366392
                    },
                    "end": {
                        "name": "NARBONNE (France)",
                        "lat": 43.190552,
                        "lon": 3.005552
                    },
                    "time_s": 34140.0
                },
                {
                    "start": {
                        "name": "NARBONNE (France)",
                        "lat": 43.190552,
                        "lon": 3.005552
                    },
                    "end": {
                        "name": "BARCELONA-SANTS (Spain)",
                        "lat": 41.379442,
                        "lon": 2.140556
                    },
                    "time_s": 7260.0
                }
            ],
            "total_duration_s": 82380.0,
            "total_distance_km": 1490.4906804561022
        },
        {
            "type": "air",
            "legs": [
                {
                    "start": {
                        "name": "NUE"
                    },
                    "end": {
                        "name": "BCN"
                    },
                    "aircraft": "32A",
                    "distance": 1149.563818314442
                }
            ],
            "total_duration_s": "PT2H10M",
            "total_distance_km": 1149.563818314442
        }
    ]
}