{
    "origin": "Paris",
    "destination": "Malaga",
    "alternatives": [
        {
            "type": "rail",
            "legs": [
                {
                    "start": {
                        "name": "PARIS GARE DE LYON (France)",
                        "lat": 48.845001,
                        "lon": 2.373611
                    },
                    "end": {
                        "name": "VALENCE TGV RHONE-ALPES SUD (France)",
                        "lat": 44.991388,
                        "lon": 4.978613
                    },
                    "time_s": 7800.0
                },
                {
                    "start": {
                        "name": "VALENCE TGV RHONE-ALPES SUD (France)",
                        "lat": 44.991388,
                        "lon": 4.978613
                    },
                    "end": {
                        "name": "BARCELONA-SANTS (Spain)",
                        "lat": 41.379442,
                        "lon": 2.140556
                    },
                    "time_s": 15480.0
                },
                {
                    "start": {
                        "name": "BARCELONA-SANTS (Spain)",
                        "lat": 41.379442,
                        "lon": 2.140556
                    },
                    "end": {
                        "name": "MADRID-PUERTA DE ATOCHA (Spain)",
                        "lat": 40.406386,
                        "lon": -3.690836
                    },
                    "time_s": 11820.0
                },
                {
                    "start": {
                        "name": "MADRID-PUERTA DE ATOCHA (Spain)",
                        "lat": 40.406386,
                        "lon": -3.690836
                    },
                    "end": {
                        "name": "MALAGA MARIA ZAMBRANO (Spain)",
                        "lat": 36.711946,
                        "lon": -4.431943
                    },
                    "time_s": 10500.0
                }
            ],
            "total_duration_s": 81420.0,
            "total_distance_km": 1852.3818621676826
        },
        {
            "type": "air",
            "legs": [
                {
                    "start": {
                        "name": "CDG"
                    },
                    "end": {
                        "name": "AGP"
                    },
                    "aircraft": "319",
                    "distance": 1485.820118468917
                }
            ],
            "total_duration_s": "PT2H35M",
            "total_distance_km": 1485.820118468917
        }
    ]
}