{
    "origin": "Pisa",
    "destination": "Lisbon",
    "alternatives": [
        {
            "type": "rail",
            "legs": [
                {
                    "start": {
                        "name": "PISA CENTRALE (Italy)",
                        "lat": 43.708052,
                        "lon": 10.398056
                    },
                    "end": {
                        "name": "FIRENZE S.M.N. (Italy)",
                        "lat": 43.776667,
                        "lon": 11.247501
                    },
                    "time_s": 3660.0
                },
                {
                    "start": {
                        "name": "FIRENZE S.M.N. (Italy)",
                        "lat": 43.776667,
                        "lon": 11.247501
                    },
                    "end": {
                        "name": "TORINO PORTA SUSA (Italy)",
                        "lat": 45.07417,
                        "lon": 7.666945
                    },
                    "time_s": 11520.0
                },
                {
                    "start": {
                        "name": "TORINO PORTA SUSA (Italy)",
                        "lat": 45.07417,
                        "lon": 7.666945
                    },
                    "end": {
                        "name": "CHAMBERY CHALLES LES EAUX (France)",
                        "lat": 45.570554,
                        "lon": 5.919999
                    },
                    "time_s": 9420.0
                },
                {
                    "start": {
                        "name": "CHAMBERY CHALLES LES EAUX (France)",
                        "lat": 45.570554,
                        "lon": 5.919999
                    },
                    "end": {
                        "name": "LYON PART DIEU (France)",
                        "lat": 45.760281,
                        "lon": 4.858885
                    },
                    "time_s": 5760.0
                },
                {
                    "start": {
                        "name": "LYON PART DIEU (France)",
                        "lat": 45.760281,
                        "lon": 4.858885
                    },
                    "end": {
                        "name": "NARBONNE (France)",
                        "lat": 43.190552,
                        "lon": 3.005552
                    },
                    "time_s": 11340.0
                },
                {
                    "start": {
                        "name": "NARBONNE (France)",
                        "lat": 43.190552,
                        "lon": 3.005552
                    },
                    "end": {
                        "name": "MADRID-PUERTA DE ATOCHA (Spain)",
                        "lat": 40.406386,
                        "lon": -3.690836
                    },
                    "time_s": 18720.0
                },
                {
                    "start": {
                        "name": "MADRID-PUERTA DE ATOCHA (Spain)",
                        "lat": 40.406386,
                        "lon": -3.690836
                    },
                    "end": {
                        "name": "MADRID-CHAMARTIN (Spain)",
                        "lat": 40.471109,
                        "lon": -3.682782
                    },
                    "time_s": 2700.0
                },
                {
                    "start": {
                        "name": "MADRID-CHAMARTIN (Spain)",
                        "lat": 40.471109,
                        "lon": -3.682782
                    },
                    "end": {
                        "name": "PONTEVEDRA (Spain)",
                        "lat": 42.421948,
                        "lon": -8.635559
                    },
                    "time_s": 15240.0
                },
                {
                    "start": {
                        "name": "PONTEVEDRA (Spain)",
                        "lat": 42.421948,
                        "lon": -8.635559
                    },
                    "end": {
                        "name": "VIGO GUIXAR (Spain)",
                        "lat": 42.239718,
                        "lon": -8.711114
                    },
                    "time_s": 1800.0
                },
                {
                    "start": {
                        "name": "VIGO GUIXAR (Spain)",
                        "lat": 42.239718,
                        "lon": -8.711114
                    },
                    "end": {
                        "name": "PORTO - CAMPANHA (Portugal)",
                        "lat": 41.149722,
                        "lon": -8.585552
                    },
                    "time_s": 4920.0
                },
                {
                    "start": {
                        "name": "PORTO - CAMPANHA (Portugal)",
                        "lat": 41.149722,
                        "lon": -8.585552
                    },
                    "end": {
                        "name": "LISBON - ORIENTE (Portugal)",
                        "lat": 38.767779,
                        "lon": -9.098054
                    },
                    "time_s": 11640.0
                }
            ],
            "total_duration_s": 177600.0,
            "total_distance_km": 2461.2673090740595
        },
        {
            "type": "air",
            "legs": [
                {
                    "start": {
                        "name": "PSA"
                    },
                    "end": {
                        "name": "AMS"
                    },
                    "aircraft": "73G",
                    "distance": 1045.7127477262484
                },
                {
                    "start": {
                        "name": "AMS"
                    },
                    "end": {
                        "name": "LIS"
                    },
                    "aircraft": "73H",
                    "distance": 1846.2997101355468
                }
            ],
            "total_duration_s": "PT13H50M",
            "total_distance_km": 2892.012457861795
        }
    ]
}