{
    "origin": "Prague",
    "destination": "Valencia",
    "alternatives": [
        {
            "type": "rail",
            "legs": [
                {
                    "start": {
                        "name": "PRAGUE HLAVNI NADRAZI (Czech Republic)",
                        "lat": 50.081386,
                        "lon": 14.435274
                    },
                    "end": {
                        "name": "DRESDEN HBF (Germany)",
                        "lat": 51.040553,
                        "lon": 13.73194
                    },
                    "time_s": 8760.0
                },
                {
                    "start": {
                        "name": "DRESDEN HBF (Germany)",
                        "lat": 51.040553,
                        "lon": 13.73194
                    },
                    "end": {
                        "name": "FRANKFURT(MAIN)HBF (Germany)",
                        "lat": 50.107221,
                        "lon": 8.663893
                    },
                    "time_s": 15840.0
                },
                {
                    "start": {
                        "name": "FRANKFURT(MAIN)HBF (Germany)",
                        "lat": 50.107221,
                        "lon": 8.663893
                    },
                    "end": {
                        "name": "PARIS EST (France)",
                        "lat": 48.877497,
                        "lon": 2.358886
                    },
                    "time_s": 13500.0
                },
                {
                    "start": {
                        "name": "PARIS EST (France)",
                        "lat": 48.877497,
                        "lon": 2.358886
                    },
                    "end": {
                        "name": "PARIS AUSTERLITZ (France)",
                        "lat": 48.841387,
                        "lon": 2.366392
                    },
                    "time_s": 2400.0
                },
                {
                    "start": {
                        "name": "PARIS AUSTERLITZ (France)",
                        "lat": 48.841387,
                        "lon": 2.366392
                    },
                    "end": {
                        "name": "NARBONNE (France)",
                        "lat": 43.190552,
                        "lon": 3.005552
                    },
                    "time_s": 34140.0
                },
                {
                    "start": {
                        "name": "NARBONNE (France)",
                        "lat": 43.190552,
                        "lon": 3.005552
                    },
                    "end": {
                        "name": "BARCELONA-SANTS (Spain)",
                        "lat": 41.379442,
                        "lon": 2.140556
                    },
                    "time_s": 7260.0
                },
                {
                    "start": {
                        "name": "BARCELONA-SANTS (Spain)",
                        "lat": 41.379442,
                        "lon": 2.140556
                    },
                    "end": {
                        "name": "VALENCIA-ESTACIO DEL NORD (Spain)",
                        "lat": 39.465,
                        "lon": -0.377502
                    },
                    "time_s": 12900.0
                }
            ],
            "total_duration_s": 123000.0,
            "total_distance_km": 2114.6496458407983
        },
        {
            "type": "air",
            "legs": [
                {
                    "start": {
                        "name": "PRG"
                    },
                    "end": {
                        "name": "VLC"
                    },
                    "aircraft": "319",
                    "distance": 1651.1574731830776
                }
            ],
            "total_duration_s": "PT2H45M",
            "total_distance_km": 1651.1574731830776
        }
    ]
}