{
    "origin": "Rome",
    "destination": "Eindhoven",
    "alternatives": [
        {
            "type": "rail",
            "legs": [
                {
                    "start": {
                        "name": "ROMA TERMINI (Italy)",
                        "lat": 41.900555,
                        "lon": 12.501667
                    },
                    "end": {
                        "name": "MILANO CENTRALE (Italy)",
                        "lat": 45.486388,
                        "lon": 9.204163
                    },
                    "time_s": 14100.0
                },
                {
                    "start": {
                        "name": "MILANO CENTRALE (Italy)",
                        "lat": 45.486388,
                        "lon": 9.204163
                    },
                    "end": {
                        "name": "BASEL SBB (Switzerland)",
                        "lat": 47.547498,
                        "lon": 7.58944
                    },
                    "time_s": 15120.0
                },
                {
                    "start": {
                        "name": "BASEL SBB (Switzerland)",
                        "lat": 47.547498,
                        "lon": 7.58944
                    },
                    "end": {
                        "name": "DUESSELDORF HBF (Germany)",
                        "lat": 51.219996,
                        "lon": 6.794443
                    },
                    "time_s": 25800.0
                },
                {
                    "start": {
                        "name": "DUESSELDORF HBF (Germany)",
                        "lat": 51.219996,
                        "lon": 6.794443
                    },
                    "end": {
                        "name": "VENLO (Netherlands)",
                        "lat": 51.365001,
                        "lon": 6.17194
                    },
                    "time_s": 4080.0
                },
                {
                    "start": {
                        "name": "VENLO (Netherlands)",
                        "lat": 51.365001,
                        "lon": 6.17194
                    },
                    "end": {
                        "name": "EINDHOVEN CENTRAAL (Netherlands)",
                        "lat": 51.442218,
                        "lon": 5.480274
                    },
                    "time_s": 2340.0
                }
            ],
            "total_duration_s": 66720.0,
            "total_distance_km": 1246.3994958587036
        },
        {
            "type": "air",
            "legs": [
                {
                    "start": {
                        "name": "FCO"
                    },
                    "end": {
                        "name": "SAW"
                    },
                    "aircraft": "320",
                    "distance": 1426.0882722282295
                },
                {
                    "start": {
                        "name": "SAW"
                    },
                    "end": {
                        "name": "EIN"
                    },
                    "aircraft": "320",
                    "distance": 2169.3998052953457
                }
            ],
            "total_duration_s": "PT22H20M",
            "total_distance_km": 3595.488077523575
        }
    ]
}