{
    "origin": "Stuttgart",
    "destination": "Turin",
    "alternatives": [
        {
            "type": "rail",
            "legs": [
                {
                    "start": {
                        "name": "STUTTGART HBF (Germany)",
                        "lat": 48.784171,
                        "lon": 9.181663
                    },
                    "end": {
                        "name": "KARLSRUHE HBF (Germany)",
                        "lat": 48.993611,
                        "lon": 8.402226
                    },
                    "time_s": 3180.0
                },
                {
                    "start": {
                        "name": "KARLSRUHE HBF (Germany)",
                        "lat": 48.993611,
                        "lon": 8.402226
                    },
                    "end": {
                        "name": "ZUERICH HB (Switzerland)",
                        "lat": 47.37806,
                        "lon": 8.540274
                    },
                    "time_s": 11460.0
                },
                {
                    "start": {
                        "name": "ZUERICH HB (Switzerland)",
                        "lat": 47.37806,
                        "lon": 8.540274
                    },
                    "end": {
                        "name": "MILANO CENTRALE (Italy)",
                        "lat": 45.486388,
                        "lon": 9.204163
                    },
                    "time_s": 11820.0
                },
                {
                    "start": {
                        "name": "MILANO CENTRALE (Italy)",
                        "lat": 45.486388,
                        "lon": 9.204163
                    },
                    "end": {
                        "name": "TORINO PORTA SUSA (Italy)",
                        "lat": 45.07417,
                        "lon": 7.666945
                    },
                    "time_s": 2940.0
                }
            ],
            "total_duration_s": 34620.0,
            "total_distance_km": 586.6116470915333
        },
        {
            "type": "air",
            "legs": [
                {
                    "start": {
                        "name": "STR"
                    },
                    "end": {
                        "name": "CDG"
                    },
                    "aircraft": "E90",
                    "distance": 489.33346193618945
                },
                {
                    "start": {
                        "name": "CDG"
                    },
                    "end": {
                        "name": "TRN"
                    },
                    "aircraft": "E70",
                    "distance": 573.0038939473278
                }
            ],
            "total_duration_s": "PT24H50M",
            "total_distance_km": 1062.3373558835174
        }
    ]
}