{
    "origin": "Stuttgart",
    "destination": "London",
    "alternatives": [
        {
            "type": "rail",
            "legs": [
                {
                    "start": {
                        "name": "STUTTGART HBF (Germany)",
                        "lat": 48.784171,
                        "lon": 9.181663
                    },
                    "end": {
                        "name": "MANNHEIM HBF (Germany)",
                        "lat": 49.479442,
                        "lon": 8.46889
                    },
                    "time_s": 2280.0
                },
                {
                    "start": {
                        "name": "MANNHEIM HBF (Germany)",
                        "lat": 49.479442,
                        "lon": 8.46889
                    },
                    "end": {
                        "name": "PARIS EST (France)",
                        "lat": 48.877497,
                        "lon": 2.358886
                    },
                    "time_s": 11520.0
                },
                {
                    "start": {
                        "name": "PARIS EST (France)",
                        "lat": 48.877497,
                        "lon": 2.358886
                    },
                    "end": {
                        "name": "PARIS NORD (France)",
                        "lat": 48.880275,
                        "lon": 2.355282
                    },
                    "time_s": 1800.0
                },
                {
                    "start": {
                        "name": "PARIS NORD (France)",
                        "lat": 48.880275,
                        "lon": 2.355282
                    },
                    "end": {
                        "name": "PARIS NORD (France)",
                        "lat": 48.880275,
                        "lon": 2.355282
                    },
                    "time_s": 2100.0
                },
                {
                    "start": {
                        "name": "PARIS NORD (France)",
                        "lat": 48.880275,
                        "lon": 2.355282
                    },
                    "end": {
                        "name": "LONDON ST PANCRAS INTL (United Kingdom)",
                        "lat": 51.530555,
                        "lon": -0.125274
                    },
                    "time_s": 4620.0
                }
            ],
            "total_duration_s": 23940.0,
            "total_distance_km": 885.995758337493
        },
        {
            "type": "air",
            "legs": [
                {
                    "start": {
                        "name": "STR"
                    },
                    "end": {
                        "name": "LHR"
                    },
                    "aircraft": "319",
                    "distance": 756.2541617283451
                }
            ],
            "total_duration_s": "PT1H50M",
            "total_distance_km": 756.2541617283451
        }
    ]
}