{
    "origin": "Stuttgart",
    "destination": "Bergen",
    "alternatives": [
        {
            "type": "rail",
            "legs": [
                {
                    "start": {
                        "name": "STUTTGART HBF (Germany)",
                        "lat": 48.784171,
                        "lon": 9.181663
                    },
                    "end": {
                        "name": "KOELN HBF (Germany)",
                        "lat": 50.943056,
                        "lon": 6.958613
                    },
                    "time_s": 8040.0
                },
                {
                    "start": {
                        "name": "KOELN HBF (Germany)",
                        "lat": 50.943056,
                        "lon": 6.958613
                    },
                    "end": {
                        "name": "BRUXELLES-MIDI (Belgium)",
                        "lat": 50.835554,
                        "lon": 4.336387
                    },
                    "time_s": 6720.0
                },
                {
                    "start": {
                        "name": "BRUXELLES-MIDI (Belgium)",
                        "lat": 50.835554,
                        "lon": 4.336387
                    },
                    "end": {
                        "name": "ATH (Belgium)",
                        "lat": 50.626663,
                        "lon": 3.777222
                    },
                    "time_s": 2340.0
                },
                {
                    "start": {
                        "name": "ATH (Belgium)",
                        "lat": 50.626663,
                        "lon": 3.777222
                    },
                    "end": {
                        "name": "MONS (Belgium)",
                        "lat": 50.453612,
                        "lon": 3.942498
                    },
                    "time_s": 1380.0
                }
            ],
            "total_duration_s": 21960.0,
            "total_distance_km": 540.617367698173
        },
        {
            "type": "air",
            "legs": [
                {
                    "start": {
                        "name": "STR"
                    },
                    "end": {
                        "name": "RIX"
                    },
                    "aircraft": "223",
                    "distance": 1344.3092802739573
                },
                {
                    "start": {
                        "name": "RIX"
                    },
                    "end": {
                        "name": "BGO"
                    },
                    "aircraft": "223",
                    "distance": 1144.2958834514866
                }
            ],
            "total_duration_s": "PT23H40M",
            "total_distance_km": 2488.605163725444
        }
    ]
}