{
    "origin": "Toulouse",
    "destination": "Berlin",
    "alternatives": [
        {
            "type": "rail",
            "legs": [
                {
                    "start": {
                        "name": "TOULOUSE MATABIAU (France)",
                        "lat": 43.611113,
                        "lon": 1.45361
                    },
                    "end": {
                        "name": "PARIS MONTPARNASSE 1 ET 2 (France)",
                        "lat": 48.839724,
                        "lon": 2.318615
                    },
                    "time_s": 16320.0
                },
                {
                    "start": {
                        "name": "PARIS MONTPARNASSE 1 ET 2 (France)",
                        "lat": 48.839724,
                        "lon": 2.318615
                    },
                    "end": {
                        "name": "PARIS NORD (France)",
                        "lat": 48.880275,
                        "lon": 2.355282
                    },
                    "time_s": 3000.0
                },
                {
                    "start": {
                        "name": "PARIS NORD (France)",
                        "lat": 48.880275,
                        "lon": 2.355282
                    },
                    "end": {
                        "name": "KOELN HBF (Germany)",
                        "lat": 50.943056,
                        "lon": 6.958613
                    },
                    "time_s": 12000.0
                },
                {
                    "start": {
                        "name": "KOELN HBF (Germany)",
                        "lat": 50.943056,
                        "lon": 6.958613
                    },
                    "end": {
                        "name": "BERLIN HBF (Germany)",
                        "lat": 52.525553,
                        "lon": 13.369441
                    },
                    "time_s": 15960.0
                }
            ],
            "total_duration_s": 49800.0,
            "total_distance_km": 1466.9302248286806
        },
        {
            "type": "air",
            "legs": [
                {
                    "start": {
                        "name": "TLS"
                    },
                    "end": {
                        "name": "FRA"
                    },
                    "aircraft": "32A",
                    "distance": 897.82822433731
                },
                {
                    "start": {
                        "name": "FRA"
                    },
                    "end": {
                        "name": "TXL"
                    },
                    "aircraft": "321",
                    "distance": 431.68306686036414
                }
            ],
            "total_duration_s": "PT10H30M",
            "total_distance_km": 1329.5112911976742
        }
    ]
}