{
    "origin": "Toulouse",
    "destination": "Granada",
    "alternatives": [
        {
            "type": "rail",
            "legs": [
                {
                    "start": {
                        "name": "TOULOUSE MATABIAU (France)",
                        "lat": 43.611113,
                        "lon": 1.45361
                    },
                    "end": {
                        "name": "NARBONNE (France)",
                        "lat": 43.190552,
                        "lon": 3.005552
                    },
                    "time_s": 4320.0
                },
                {
                    "start": {
                        "name": "NARBONNE (France)",
                        "lat": 43.190552,
                        "lon": 3.005552
                    },
                    "end": {
                        "name": "MADRID-PUERTA DE ATOCHA (Spain)",
                        "lat": 40.406386,
                        "lon": -3.690836
                    },
                    "time_s": 18720.0
                },
                {
                    "start": {
                        "name": "MADRID-PUERTA DE ATOCHA (Spain)",
                        "lat": 40.406386,
                        "lon": -3.690836
                    },
                    "end": {
                        "name": "MALAGA MARIA ZAMBRANO (Spain)",
                        "lat": 36.711946,
                        "lon": -4.431943
                    },
                    "time_s": 10620.0
                },
                {
                    "start": {
                        "name": "MALAGA MARIA ZAMBRANO (Spain)",
                        "lat": 36.711946,
                        "lon": -4.431943
                    },
                    "end": {
                        "name": "GRANADA (Spain)",
                        "lat": 37.184167,
                        "lon": -3.609169
                    },
                    "time_s": 4320.0
                }
            ],
            "total_duration_s": 46320.0,
            "total_distance_km": 1274.9624687148548
        },
        {
            "type": "air",
            "legs": [
                {
                    "start": {
                        "name": "TLS"
                    },
                    "end": {
                        "name": "MAD"
                    },
                    "aircraft": "CRK",
                    "distance": 537.1375787260022
                },
                {
                    "start": {
                        "name": "MAD"
                    },
                    "end": {
                        "name": "GRX"
                    },
                    "aircraft": "CRK",
                    "distance": 365.5514944166332
                }
            ],
            "total_duration_s": "PT3H20M",
            "total_distance_km": 902.6890731426354
        }
    ]
}