{
    "origin": "Toulouse",
    "destination": "Oslo",
    "alternatives": [
        {
            "type": "rail",
            "legs": [
                {
                    "start": {
                        "name": "TOULOUSE MATABIAU (France)",
                        "lat": 43.611113,
                        "lon": 1.45361
                    },
                    "end": {
                        "name": "PARIS MONTPARNASSE 1 ET 2 (France)",
                        "lat": 48.839724,
                        "lon": 2.318615
                    },
                    "time_s": 16080.0
                },
                {
                    "start": {
                        "name": "PARIS MONTPARNASSE 1 ET 2 (France)",
                        "lat": 48.839724,
                        "lon": 2.318615
                    },
                    "end": {
                        "name": "PARIS EST (France)",
                        "lat": 48.877497,
                        "lon": 2.358886
                    },
                    "time_s": 3000.0
                },
                {
                    "start": {
                        "name": "PARIS EST (France)",
                        "lat": 48.877497,
                        "lon": 2.358886
                    },
                    "end": {
                        "name": "KARLSRUHE HBF (Germany)",
                        "lat": 48.993611,
                        "lon": 8.402226
                    },
                    "time_s": 9000.0
                },
                {
                    "start": {
                        "name": "KARLSRUHE HBF (Germany)",
                        "lat": 48.993611,
                        "lon": 8.402226
                    },
                    "end": {
                        "name": "HAMBURG HBF (Germany)",
                        "lat": 53.552778,
                        "lon": 10.006945
                    },
                    "time_s": 18180.0
                },
                {
                    "start": {
                        "name": "HAMBURG HBF (Germany)",
                        "lat": 53.552778,
                        "lon": 10.006945
                    },
                    "end": {
                        "name": "Norrkoping C (Sweden)",
                        "lat": 58.596391,
                        "lon": 16.183334
                    },
                    "time_s": 46080.0
                },
                {
                    "start": {
                        "name": "Norrkoping C (Sweden)",
                        "lat": 58.596391,
                        "lon": 16.183334
                    },
                    "end": {
                        "name": "Katrineholm C (Sweden)",
                        "lat": 58.996393,
                        "lon": 16.208054
                    },
                    "time_s": 1500.0
                },
                {
                    "start": {
                        "name": "Katrineholm C (Sweden)",
                        "lat": 58.996393,
                        "lon": 16.208054
                    },
                    "end": {
                        "name": "Karlstad C (Sweden)",
                        "lat": 59.377779,
                        "lon": 13.498885
                    },
                    "time_s": 6060.0
                },
                {
                    "start": {
                        "name": "Karlstad C (Sweden)",
                        "lat": 59.377779,
                        "lon": 13.498885
                    },
                    "end": {
                        "name": "KONGSVINGER (Norway)",
                        "lat": 60.187779,
                        "lon": 12.003889
                    },
                    "time_s": 6540.0
                },
                {
                    "start": {
                        "name": "KONGSVINGER (Norway)",
                        "lat": 60.187779,
                        "lon": 12.003889
                    },
                    "end": {
                        "name": "OSLO S (Norway)",
                        "lat": 59.910282,
                        "lon": 10.755279
                    },
                    "time_s": 4620.0
                }
            ],
            "total_duration_s": 127680.0,
            "total_distance_km": 2632.8921202262245
        },
        {
            "type": "air",
            "legs": [
                {
                    "start": {
                        "name": "TLS"
                    },
                    "end": {
                        "name": "AMS"
                    },
                    "aircraft": "73W",
                    "distance": 997.4675773841553
                },
                {
                    "start": {
                        "name": "AMS"
                    },
                    "end": {
                        "name": "OSL"
                    },
                    "aircraft": "E90",
                    "distance": 959.1844590087999
                }
            ],
            "total_duration_s": "PT15H45M",
            "total_distance_km": 1956.6520363929553
        }
    ]
}