{
    "origin": "Toulouse",
    "destination": "Nuremberg",
    "alternatives": [
        {
            "type": "rail",
            "legs": [
                {
                    "start": {
                        "name": "TOULOUSE MATABIAU (France)",
                        "lat": 43.611113,
                        "lon": 1.45361
                    },
                    "end": {
                        "name": "PARIS MONTPARNASSE 1 ET 2 (France)",
                        "lat": 48.839724,
                        "lon": 2.318615
                    },
                    "time_s": 16320.0
                },
                {
                    "start": {
                        "name": "PARIS MONTPARNASSE 1 ET 2 (France)",
                        "lat": 48.839724,
                        "lon": 2.318615
                    },
                    "end": {
                        "name": "PARIS NORD (France)",
                        "lat": 48.880275,
                        "lon": 2.355282
                    },
                    "time_s": 3000.0
                },
                {
                    "start": {
                        "name": "PARIS NORD (France)",
                        "lat": 48.880275,
                        "lon": 2.355282
                    },
                    "end": {
                        "name": "KOELN HBF (Germany)",
                        "lat": 50.943056,
                        "lon": 6.958613
                    },
                    "time_s": 12000.0
                },
                {
                    "start": {
                        "name": "KOELN HBF (Germany)",
                        "lat": 50.943056,
                        "lon": 6.958613
                    },
                    "end": {
                        "name": "KOELN MESSE/DEUTZ (Germany)",
                        "lat": 50.940836,
                        "lon": 6.975
                    },
                    "time_s": 120.0
                },
                {
                    "start": {
                        "name": "KOELN MESSE/DEUTZ (Germany)",
                        "lat": 50.940836,
                        "lon": 6.975
                    },
                    "end": {
                        "name": "KOELN MESSE/DEUTZ GL.11-12 (Germany)",
                        "lat": 50.941663,
                        "lon": 6.974164
                    },
                    "time_s": 420.0
                },
                {
                    "start": {
                        "name": "KOELN MESSE/DEUTZ GL.11-12 (Germany)",
                        "lat": 50.941663,
                        "lon": 6.974164
                    },
                    "end": {
                        "name": "NUERNBERG HBF (Germany)",
                        "lat": 49.445552,
                        "lon": 11.083052
                    },
                    "time_s": 13440.0
                }
            ],
            "total_duration_s": 46560.0,
            "total_distance_km": 1329.5957909885378
        },
        {
            "type": "air",
            "legs": [
                {
                    "start": {
                        "name": "TLS"
                    },
                    "end": {
                        "name": "AMS"
                    },
                    "aircraft": "73W",
                    "distance": 997.4675773841553
                },
                {
                    "start": {
                        "name": "AMS"
                    },
                    "end": {
                        "name": "NUE"
                    },
                    "aircraft": "73W",
                    "distance": 541.5968895724073
                }
            ],
            "total_duration_s": "PT17H55M",
            "total_distance_km": 1539.0644669565627
        }
    ]
}