{
    "origin": "Toulouse",
    "destination": "Liverpool",
    "alternatives": [
        {
            "type": "rail",
            "legs": [
                {
                    "start": {
                        "name": "TOULOUSE MATABIAU (France)",
                        "lat": 43.611113,
                        "lon": 1.45361
                    },
                    "end": {
                        "name": "PARIS MONTPARNASSE 1 ET 2 (France)",
                        "lat": 48.839724,
                        "lon": 2.318615
                    },
                    "time_s": 16320.0
                },
                {
                    "start": {
                        "name": "PARIS MONTPARNASSE 1 ET 2 (France)",
                        "lat": 48.839724,
                        "lon": 2.318615
                    },
                    "end": {
                        "name": "PARIS NORD (France)",
                        "lat": 48.880275,
                        "lon": 2.355282
                    },
                    "time_s": 3000.0
                },
                {
                    "start": {
                        "name": "PARIS NORD (France)",
                        "lat": 48.880275,
                        "lon": 2.355282
                    },
                    "end": {
                        "name": "PARIS NORD (France)",
                        "lat": 48.880275,
                        "lon": 2.355282
                    },
                    "time_s": 2100.0
                },
                {
                    "start": {
                        "name": "PARIS NORD (France)",
                        "lat": 48.880275,
                        "lon": 2.355282
                    },
                    "end": {
                        "name": "LONDON ST PANCRAS INTL (United Kingdom)",
                        "lat": 51.530555,
                        "lon": -0.125274
                    },
                    "time_s": 4620.0
                },
                {
                    "start": {
                        "name": "LONDON ST PANCRAS INTL (United Kingdom)",
                        "lat": 51.530555,
                        "lon": -0.125274
                    },
                    "end": {
                        "name": "LONDON EUSTON (United Kingdom)",
                        "lat": 51.525836,
                        "lon": -0.133058
                    },
                    "time_s": 3600.0
                },
                {
                    "start": {
                        "name": "LONDON EUSTON (United Kingdom)",
                        "lat": 51.525836,
                        "lon": -0.133058
                    },
                    "end": {
                        "name": "WARRINGTON BANK QUAY (United Kingdom)",
                        "lat": 53.382504,
                        "lon": -2.601388
                    },
                    "time_s": 6240.0
                },
                {
                    "start": {
                        "name": "WARRINGTON BANK QUAY (United Kingdom)",
                        "lat": 53.382504,
                        "lon": -2.601388
                    },
                    "end": {
                        "name": "NEWTON-LE-WILLOWS (United Kingdom)",
                        "lat": 53.450004,
                        "lon": -2.612778
                    },
                    "time_s": 600.0
                },
                {
                    "start": {
                        "name": "NEWTON-LE-WILLOWS (United Kingdom)",
                        "lat": 53.450004,
                        "lon": -2.612778
                    },
                    "end": {
                        "name": "LIVERPOOL LIME STREET (United Kingdom)",
                        "lat": 53.404447,
                        "lon": -2.976391
                    },
                    "time_s": 1320.0
                }
            ],
            "total_duration_s": 41880.0,
            "total_distance_km": 1232.4925459325955
        },
        {
            "type": "air",
            "legs": [
                {
                    "start": {
                        "name": "TLS"
                    },
                    "end": {
                        "name": "FRA"
                    },
                    "aircraft": "32A",
                    "distance": 897.82822433731
                },
                {
                    "start": {
                        "name": "FRA"
                    },
                    "end": {
                        "name": "LPL"
                    },
                    "aircraft": "CR9",
                    "distance": 867.3535342196461
                }
            ],
            "total_duration_s": "PT7H55M",
            "total_distance_km": 1765.181758556956
        }
    ]
}