{
    "origin": "Turin",
    "destination": "Malaga",
    "alternatives": [
        {
            "type": "rail",
            "legs": [
                {
                    "start": {
                        "name": "TORINO PORTA SUSA (Italy)",
                        "lat": 45.07417,
                        "lon": 7.666945
                    },
                    "end": {
                        "name": "LYON PART DIEU (France)",
                        "lat": 45.760281,
                        "lon": 4.858885
                    },
                    "time_s": 12660.0
                },
                {
                    "start": {
                        "name": "LYON PART DIEU (France)",
                        "lat": 45.760281,
                        "lon": 4.858885
                    },
                    "end": {
                        "name": "NARBONNE (France)",
                        "lat": 43.190552,
                        "lon": 3.005552
                    },
                    "time_s": 11340.0
                },
                {
                    "start": {
                        "name": "NARBONNE (France)",
                        "lat": 43.190552,
                        "lon": 3.005552
                    },
                    "end": {
                        "name": "MADRID-PUERTA DE ATOCHA (Spain)",
                        "lat": 40.406386,
                        "lon": -3.690836
                    },
                    "time_s": 18720.0
                },
                {
                    "start": {
                        "name": "MADRID-PUERTA DE ATOCHA (Spain)",
                        "lat": 40.406386,
                        "lon": -3.690836
                    },
                    "end": {
                        "name": "MALAGA MARIA ZAMBRANO (Spain)",
                        "lat": 36.711946,
                        "lon": -4.431943
                    },
                    "time_s": 10620.0
                }
            ],
            "total_duration_s": 96660.0,
            "total_distance_km": 1604.5234545004407
        },
        {
            "type": "air",
            "legs": [
                {
                    "start": {
                        "name": "TRN"
                    },
                    "end": {
                        "name": "CDG"
                    },
                    "aircraft": "E90",
                    "distance": 573.0038939473278
                },
                {
                    "start": {
                        "name": "CDG"
                    },
                    "end": {
                        "name": "AGP"
                    },
                    "aircraft": "321",
                    "distance": 1485.820118468917
                }
            ],
            "total_duration_s": "PT6H15M",
            "total_distance_km": 2058.824012416245
        }
    ]
}