{
    "origin": "Turin",
    "destination": "Debrecen",
    "alternatives": [
        {
            "type": "rail",
            "legs": [
                {
                    "start": {
                        "name": "TORINO PORTA SUSA (Italy)",
                        "lat": 45.07417,
                        "lon": 7.666945
                    },
                    "end": {
                        "name": "MILANO P.GARIBALDI (Italy)",
                        "lat": 45.484725,
                        "lon": 9.187776
                    },
                    "time_s": 3120.0
                },
                {
                    "start": {
                        "name": "MILANO P.GARIBALDI (Italy)",
                        "lat": 45.484725,
                        "lon": 9.187776
                    },
                    "end": {
                        "name": "MILANO CENTRALE (Italy)",
                        "lat": 45.486388,
                        "lon": 9.204163
                    },
                    "time_s": 900.0
                },
                {
                    "start": {
                        "name": "MILANO CENTRALE (Italy)",
                        "lat": 45.486388,
                        "lon": 9.204163
                    },
                    "end": {
                        "name": "ZUERICH HB (Switzerland)",
                        "lat": 47.37806,
                        "lon": 8.540274
                    },
                    "time_s": 11820.0
                },
                {
                    "start": {
                        "name": "ZUERICH HB (Switzerland)",
                        "lat": 47.37806,
                        "lon": 8.540274
                    },
                    "end": {
                        "name": "BUDAPEST-KELENFOELD (Hungary)",
                        "lat": 47.464447,
                        "lon": 19.019997
                    },
                    "time_s": 40920.0
                },
                {
                    "start": {
                        "name": "BUDAPEST-KELENFOELD (Hungary)",
                        "lat": 47.464447,
                        "lon": 19.019997
                    },
                    "end": {
                        "name": "KOEBANYA-KISPEST (Hungary)",
                        "lat": 47.463889,
                        "lon": 19.149442
                    },
                    "time_s": 900.0
                },
                {
                    "start": {
                        "name": "KOEBANYA-KISPEST (Hungary)",
                        "lat": 47.463889,
                        "lon": 19.149442
                    },
                    "end": {
                        "name": "DEBRECEN (Hungary)",
                        "lat": 47.520279,
                        "lon": 21.628613
                    },
                    "time_s": 8040.0
                }
            ],
            "total_duration_s": 72660.0,
            "total_distance_km": 1329.146596388368
        },
        {
            "type": "air",
            "legs": [
                {
                    "start": {
                        "name": "TRN"
                    },
                    "end": {
                        "name": "MUC"
                    },
                    "aircraft": "E95",
                    "distance": 471.17628050850146
                },
                {
                    "start": {
                        "name": "MUC"
                    },
                    "end": {
                        "name": "DEB"
                    },
                    "aircraft": "CR9",
                    "distance": 738.2098347984412
                }
            ],
            "total_duration_s": "PT6H15M",
            "total_distance_km": 1209.3861153069427
        }
    ]
}