{
    "origin": "Turin",
    "destination": "Stockholm",
    "alternatives": [
        {
            "type": "rail",
            "legs": [
                {
                    "start": {
                        "name": "TORINO PORTA SUSA (Italy)",
                        "lat": 45.07417,
                        "lon": 7.666945
                    },
                    "end": {
                        "name": "MILANO CENTRALE (Italy)",
                        "lat": 45.486388,
                        "lon": 9.204163
                    },
                    "time_s": 3300.0
                },
                {
                    "start": {
                        "name": "MILANO CENTRALE (Italy)",
                        "lat": 45.486388,
                        "lon": 9.204163
                    },
                    "end": {
                        "name": "ZUERICH HB (Switzerland)",
                        "lat": 47.37806,
                        "lon": 8.540274
                    },
                    "time_s": 11820.0
                },
                {
                    "start": {
                        "name": "ZUERICH HB (Switzerland)",
                        "lat": 47.37806,
                        "lon": 8.540274
                    },
                    "end": {
                        "name": "HAMBURG HBF (Germany)",
                        "lat": 53.552778,
                        "lon": 10.006945
                    },
                    "time_s": 31680.0
                },
                {
                    "start": {
                        "name": "HAMBURG HBF (Germany)",
                        "lat": 53.552778,
                        "lon": 10.006945
                    },
                    "end": {
                        "name": "NEUMUENSTER (Germany)",
                        "lat": 54.075833,
                        "lon": 9.979725
                    },
                    "time_s": 3240.0
                },
                {
                    "start": {
                        "name": "NEUMUENSTER (Germany)",
                        "lat": 54.075833,
                        "lon": 9.979725
                    },
                    "end": {
                        "name": "FLENSBURG (Germany)",
                        "lat": 54.774169,
                        "lon": 9.43639
                    },
                    "time_s": 4080.0
                },
                {
                    "start": {
                        "name": "FLENSBURG (Germany)",
                        "lat": 54.774169,
                        "lon": 9.43639
                    },
                    "end": {
                        "name": "FREDERICIA (Denmark)",
                        "lat": 55.56806,
                        "lon": 9.740558
                    },
                    "time_s": 5160.0
                },
                {
                    "start": {
                        "name": "FREDERICIA (Denmark)",
                        "lat": 55.56806,
                        "lon": 9.740558
                    },
                    "end": {
                        "name": "CPH LUFTHAVN (Denmark)",
                        "lat": 55.629169,
                        "lon": 12.648892
                    },
                    "time_s": 7320.0
                },
                {
                    "start": {
                        "name": "CPH LUFTHAVN (Denmark)",
                        "lat": 55.629169,
                        "lon": 12.648892
                    },
                    "end": {
                        "name": "Malmo C (Sweden)",
                        "lat": 55.609447,
                        "lon": 13.000829
                    },
                    "time_s": 1440.0
                },
                {
                    "start": {
                        "name": "Malmo C (Sweden)",
                        "lat": 55.609447,
                        "lon": 13.000829
                    },
                    "end": {
                        "name": "Stockholm Central (Sweden)",
                        "lat": 59.330001,
                        "lon": 18.058052
                    },
                    "time_s": 16200.0
                }
            ],
            "total_duration_s": 103440.0,
            "total_distance_km": 1990.4375061160072
        },
        {
            "type": "air",
            "legs": [
                {
                    "start": {
                        "name": "TRN"
                    },
                    "end": {
                        "name": "CDG"
                    },
                    "aircraft": "E90",
                    "distance": 573.0038939473278
                },
                {
                    "start": {
                        "name": "CDG"
                    },
                    "end": {
                        "name": "ARN"
                    },
                    "aircraft": "320",
                    "distance": 1539.1579265957794
                }
            ],
            "total_duration_s": "PT6H5M",
            "total_distance_km": 2112.1618205431073
        }
    ]
}