{
    "origin": "Turin",
    "destination": "Marseille",
    "alternatives": [
        {
            "type": "rail",
            "legs": [
                {
                    "start": {
                        "name": "TORINO PORTA SUSA (Italy)",
                        "lat": 45.07417,
                        "lon": 7.666945
                    },
                    "end": {
                        "name": "CHAMBERY CHALLES LES EAUX (France)",
                        "lat": 45.570554,
                        "lon": 5.919999
                    },
                    "time_s": 8700.0
                },
                {
                    "start": {
                        "name": "CHAMBERY CHALLES LES EAUX (France)",
                        "lat": 45.570554,
                        "lon": 5.919999
                    },
                    "end": {
                        "name": "AIX LES BAINS LE REVARD (France)",
                        "lat": 45.688052,
                        "lon": 5.909446
                    },
                    "time_s": 660.0
                },
                {
                    "start": {
                        "name": "AIX LES BAINS LE REVARD (France)",
                        "lat": 45.688052,
                        "lon": 5.909446
                    },
                    "end": {
                        "name": "LYON PART DIEU (France)",
                        "lat": 45.760281,
                        "lon": 4.858885
                    },
                    "time_s": 4260.0
                },
                {
                    "start": {
                        "name": "LYON PART DIEU (France)",
                        "lat": 45.760281,
                        "lon": 4.858885
                    },
                    "end": {
                        "name": "MARSEILLE ST CHARLES (France)",
                        "lat": 43.302774,
                        "lon": 5.380278
                    },
                    "time_s": 6180.0
                }
            ],
            "total_duration_s": 22080.0,
            "total_distance_km": 518.7140033371979
        },
        {
            "type": "air",
            "legs": [
                {
                    "start": {
                        "name": "TRN"
                    },
                    "end": {
                        "name": "MAD"
                    },
                    "aircraft": "CRK",
                    "distance": 1053.2781760350933
                },
                {
                    "start": {
                        "name": "MAD"
                    },
                    "end": {
                        "name": "MRS"
                    },
                    "aircraft": "CRK",
                    "distance": 797.2550056582962
                }
            ],
            "total_duration_s": "PT11H20M",
            "total_distance_km": 1850.5331816933895
        }
    ]
}