{
    "origin": "Venice",
    "destination": "Granada",
    "alternatives": [
        {
            "type": "rail",
            "legs": [
                {
                    "start": {
                        "name": "VENEZIA MESTRE (Italy)",
                        "lat": 45.481948,
                        "lon": 12.231667
                    },
                    "end": {
                        "name": "MILANO CENTRALE (Italy)",
                        "lat": 45.486388,
                        "lon": 9.204163
                    },
                    "time_s": 8100.0
                },
                {
                    "start": {
                        "name": "MILANO CENTRALE (Italy)",
                        "lat": 45.486388,
                        "lon": 9.204163
                    },
                    "end": {
                        "name": "LYON PART DIEU (France)",
                        "lat": 45.760281,
                        "lon": 4.858885
                    },
                    "time_s": 15540.0
                },
                {
                    "start": {
                        "name": "LYON PART DIEU (France)",
                        "lat": 45.760281,
                        "lon": 4.858885
                    },
                    "end": {
                        "name": "NARBONNE (France)",
                        "lat": 43.190552,
                        "lon": 3.005552
                    },
                    "time_s": 11340.0
                },
                {
                    "start": {
                        "name": "NARBONNE (France)",
                        "lat": 43.190552,
                        "lon": 3.005552
                    },
                    "end": {
                        "name": "MADRID-PUERTA DE ATOCHA (Spain)",
                        "lat": 40.406386,
                        "lon": -3.690836
                    },
                    "time_s": 18720.0
                },
                {
                    "start": {
                        "name": "MADRID-PUERTA DE ATOCHA (Spain)",
                        "lat": 40.406386,
                        "lon": -3.690836
                    },
                    "end": {
                        "name": "MALAGA MARIA ZAMBRANO (Spain)",
                        "lat": 36.711946,
                        "lon": -4.431943
                    },
                    "time_s": 10620.0
                },
                {
                    "start": {
                        "name": "MALAGA MARIA ZAMBRANO (Spain)",
                        "lat": 36.711946,
                        "lon": -4.431943
                    },
                    "end": {
                        "name": "GRANADA (Spain)",
                        "lat": 37.184167,
                        "lon": -3.609169
                    },
                    "time_s": 4320.0
                }
            ],
            "total_duration_s": 121020.0,
            "total_distance_km": 2037.736479742335
        },
        {
            "type": "air",
            "legs": [
                {
                    "start": {
                        "name": "VCE"
                    },
                    "end": {
                        "name": "MAD"
                    },
                    "aircraft": "320",
                    "distance": 1407.109401760893
                },
                {
                    "start": {
                        "name": "MAD"
                    },
                    "end": {
                        "name": "GRX"
                    },
                    "aircraft": "CRK",
                    "distance": 365.5514944166332
                }
            ],
            "total_duration_s": "PT20H55M",
            "total_distance_km": 1772.6608961775262
        }
    ]
}