{
    "origin": "Venice",
    "destination": "Lille",
    "alternatives": [
        {
            "type": "rail",
            "legs": [
                {
                    "start": {
                        "name": "VENEZIA MESTRE (Italy)",
                        "lat": 45.481948,
                        "lon": 12.231667
                    },
                    "end": {
                        "name": "MILANO CENTRALE (Italy)",
                        "lat": 45.486388,
                        "lon": 9.204163
                    },
                    "time_s": 8700.0
                },
                {
                    "start": {
                        "name": "MILANO CENTRALE (Italy)",
                        "lat": 45.486388,
                        "lon": 9.204163
                    },
                    "end": {
                        "name": "MILANO P.GARIBALDI (Italy)",
                        "lat": 45.484725,
                        "lon": 9.187776
                    },
                    "time_s": 900.0
                },
                {
                    "start": {
                        "name": "MILANO P.GARIBALDI (Italy)",
                        "lat": 45.484725,
                        "lon": 9.187776
                    },
                    "end": {
                        "name": "PARIS GARE DE LYON (France)",
                        "lat": 48.845001,
                        "lon": 2.373611
                    },
                    "time_s": 25740.0
                },
                {
                    "start": {
                        "name": "PARIS GARE DE LYON (France)",
                        "lat": 48.845001,
                        "lon": 2.373611
                    },
                    "end": {
                        "name": "PARIS NORD (France)",
                        "lat": 48.880275,
                        "lon": 2.355282
                    },
                    "time_s": 2400.0
                },
                {
                    "start": {
                        "name": "PARIS NORD (France)",
                        "lat": 48.880275,
                        "lon": 2.355282
                    },
                    "end": {
                        "name": "LILLE EUROPE (France)",
                        "lat": 50.639446,
                        "lon": 3.07556
                    },
                    "time_s": 4500.0
                }
            ],
            "total_duration_s": 67020.0,
            "total_distance_km": 1079.7725441844239
        },
        {
            "type": "air",
            "legs": [
                {
                    "start": {
                        "name": "VCE"
                    },
                    "end": {
                        "name": "ATH"
                    },
                    "aircraft": "32N",
                    "distance": 1275.9589878972522
                },
                {
                    "start": {
                        "name": "ATH"
                    },
                    "end": {
                        "name": "LIL"
                    },
                    "aircraft": "319",
                    "distance": 2161.7806041876975
                }
            ],
            "total_duration_s": "PT28H5M",
            "total_distance_km": 3437.7395920849494
        }
    ]
}