{
    "origin": "Venice",
    "destination": "Toulouse",
    "alternatives": [
        {
            "type": "rail",
            "legs": [
                {
                    "start": {
                        "name": "VENEZIA MESTRE (Italy)",
                        "lat": 45.481948,
                        "lon": 12.231667
                    },
                    "end": {
                        "name": "MILANO CENTRALE (Italy)",
                        "lat": 45.486388,
                        "lon": 9.204163
                    },
                    "time_s": 8100.0
                },
                {
                    "start": {
                        "name": "MILANO CENTRALE (Italy)",
                        "lat": 45.486388,
                        "lon": 9.204163
                    },
                    "end": {
                        "name": "LYON PART DIEU (France)",
                        "lat": 45.760281,
                        "lon": 4.858885
                    },
                    "time_s": 15540.0
                },
                {
                    "start": {
                        "name": "LYON PART DIEU (France)",
                        "lat": 45.760281,
                        "lon": 4.858885
                    },
                    "end": {
                        "name": "AVIGNON TGV (France)",
                        "lat": 43.921663,
                        "lon": 4.78556
                    },
                    "time_s": 3780.0
                },
                {
                    "start": {
                        "name": "AVIGNON TGV (France)",
                        "lat": 43.921663,
                        "lon": 4.78556
                    },
                    "end": {
                        "name": "AVIGNON CENTRE (France)",
                        "lat": 43.941943,
                        "lon": 4.805274
                    },
                    "time_s": 240.0
                },
                {
                    "start": {
                        "name": "AVIGNON CENTRE (France)",
                        "lat": 43.941943,
                        "lon": 4.805274
                    },
                    "end": {
                        "name": "NARBONNE (France)",
                        "lat": 43.190552,
                        "lon": 3.005552
                    },
                    "time_s": 8460.0
                },
                {
                    "start": {
                        "name": "NARBONNE (France)",
                        "lat": 43.190552,
                        "lon": 3.005552
                    },
                    "end": {
                        "name": "TOULOUSE MATABIAU (France)",
                        "lat": 43.611113,
                        "lon": 1.45361
                    },
                    "time_s": 5580.0
                }
            ],
            "total_duration_s": 81720.0,
            "total_distance_km": 1083.696712479934
        },
        {
            "type": "air",
            "legs": [
                {
                    "start": {
                        "name": "VCE"
                    },
                    "end": {
                        "name": "AMS"
                    },
                    "aircraft": "73H",
                    "distance": 936.9106557034461
                },
                {
                    "start": {
                        "name": "AMS"
                    },
                    "end": {
                        "name": "TLS"
                    },
                    "aircraft": "E90",
                    "distance": 997.4675773841553
                }
            ],
            "total_duration_s": "PT4H55M",
            "total_distance_km": 1934.3782330876015
        }
    ]
}