{
    "origin": "Bordeaux",
    "destination": "Budapest",
    "alternatives": [
        {
            "type": "rail",
            "legs": [
                {
                    "start": {
                        "name": "BORDEAUX ST JEAN (France)",
                        "lat": 44.825834,
                        "lon": -0.556387
                    },
                    "end": {
                        "name": "PARIS MONTPARNASSE 1 ET 2 (France)",
                        "lat": 48.839724,
                        "lon": 2.318615
                    },
                    "time_s": 10980.0
                },
                {
                    "start": {
                        "name": "PARIS MONTPARNASSE 1 ET 2 (France)",
                        "lat": 48.839724,
                        "lon": 2.318615
                    },
                    "end": {
                        "name": "PARIS EST (France)",
                        "lat": 48.877497,
                        "lon": 2.358886
                    },
                    "time_s": 3000.0
                },
                {
                    "start": {
                        "name": "PARIS EST (France)",
                        "lat": 48.877497,
                        "lon": 2.358886
                    },
                    "end": {
                        "name": "STUTTGART HBF (Germany)",
                        "lat": 48.784171,
                        "lon": 9.181663
                    },
                    "time_s": 11340.0
                },
                {
                    "start": {
                        "name": "STUTTGART HBF (Germany)",
                        "lat": 48.784171,
                        "lon": 9.181663
                    },
                    "end": {
                        "name": "MUENCHEN HBF (Germany)",
                        "lat": 48.140274,
                        "lon": 11.55833
                    },
                    "time_s": 7980.0
                },
                {
                    "start": {
                        "name": "MUENCHEN HBF (Germany)",
                        "lat": 48.140274,
                        "lon": 11.55833
                    },
                    "end": {
                        "name": "BUDAPEST-KELENFOELD (Hungary)",
                        "lat": 47.464447,
                        "lon": 19.019997
                    },
                    "time_s": 23520.0
                }
            ],
            "total_duration_s": 61440.0,
            "total_distance_km": 1752.8329637429224
        },
        {
            "type": "air",
            "legs": [
                {
                    "start": {
                        "name": "BOD"
                    },
                    "end": {
                        "name": "AMS"
                    },
                    "aircraft": "73W",
                    "distance": 923.6933288206424
                },
                {
                    "start": {
                        "name": "AMS"
                    },
                    "end": {
                        "name": "BUD"
                    },
                    "aircraft": "73H",
                    "distance": 1169.2131617296138
                }
            ],
            "total_duration_s": "PT23H",
            "total_distance_km": 2092.9064905502564
        }
    ]
}