{
    "origin": "Marseille",
    "destination": "Newcastle",
    "alternatives": [
        {
            "type": "rail",
            "legs": [
                {
                    "start": {
                        "name": "MARSEILLE ST CHARLES (France)",
                        "lat": 43.302774,
                        "lon": 5.380278
                    },
                    "end": {
                        "name": "PARIS GARE DE LYON (France)",
                        "lat": 48.845001,
                        "lon": 2.373611
                    },
                    "time_s": 11940.0
                },
                {
                    "start": {
                        "name": "PARIS GARE DE LYON (France)",
                        "lat": 48.845001,
                        "lon": 2.373611
                    },
                    "end": {
                        "name": "PARIS NORD (France)",
                        "lat": 48.880275,
                        "lon": 2.355282
                    },
                    "time_s": 2400.0
                },
                {
                    "start": {
                        "name": "PARIS NORD (France)",
                        "lat": 48.880275,
                        "lon": 2.355282
                    },
                    "end": {
                        "name": "PARIS NORD (France)",
                        "lat": 48.880275,
                        "lon": 2.355282
                    },
                    "time_s": 2100.0
                },
                {
                    "start": {
                        "name": "PARIS NORD (France)",
                        "lat": 48.880275,
                        "lon": 2.355282
                    },
                    "end": {
                        "name": "LONDON ST PANCRAS INTL (United Kingdom)",
                        "lat": 51.530555,
                        "lon": -0.125274
                    },
                    "time_s": 4620.0
                },
                {
                    "start": {
                        "name": "LONDON ST PANCRAS INTL (United Kingdom)",
                        "lat": 51.530555,
                        "lon": -0.125274
                    },
                    "end": {
                        "name": "LONDON KINGS CROSS (United Kingdom)",
                        "lat": 51.528335,
                        "lon": -0.12139
                    },
                    "time_s": 3060.0
                },
                {
                    "start": {
                        "name": "LONDON KINGS CROSS (United Kingdom)",
                        "lat": 51.528335,
                        "lon": -0.12139
                    },
                    "end": {
                        "name": "NEWCASTLE (United Kingdom)",
                        "lat": 54.96528,
                        "lon": -1.615829
                    },
                    "time_s": 11100.0
                }
            ],
            "total_duration_s": 37980.0,
            "total_distance_km": 1401.190887578372
        },
        {
            "type": "air",
            "legs": [
                {
                    "start": {
                        "name": "MRS"
                    },
                    "end": {
                        "name": "AMS"
                    },
                    "aircraft": "CRK",
                    "distance": 986.8104778103706
                },
                {
                    "start": {
                        "name": "AMS"
                    },
                    "end": {
                        "name": "NCL"
                    },
                    "aircraft": "73H",
                    "distance": 522.0655873129657
                }
            ],
            "total_duration_s": "PT16H35M",
            "total_distance_km": 1508.8760651233363
        }
    ]
}