{
    "origin": "Nantes",
    "destination": "Friedrichshafen",
    "alternatives": [
        {
            "type": "rail",
            "legs": [
                {
                    "start": {
                        "name": "NANTES (France)",
                        "lat": 47.217504,
                        "lon": -1.541947
                    },
                    "end": {
                        "name": "PARIS MONTPARNASSE 1 ET 2 (France)",
                        "lat": 48.839724,
                        "lon": 2.318615
                    },
                    "time_s": 7740.0
                },
                {
                    "start": {
                        "name": "PARIS MONTPARNASSE 1 ET 2 (France)",
                        "lat": 48.839724,
                        "lon": 2.318615
                    },
                    "end": {
                        "name": "PARIS GARE DE LYON (France)",
                        "lat": 48.845001,
                        "lon": 2.373611
                    },
                    "time_s": 3000.0
                },
                {
                    "start": {
                        "name": "PARIS GARE DE LYON (France)",
                        "lat": 48.845001,
                        "lon": 2.373611
                    },
                    "end": {
                        "name": "BASEL SBB (Switzerland)",
                        "lat": 47.547498,
                        "lon": 7.58944
                    },
                    "time_s": 11100.0
                },
                {
                    "start": {
                        "name": "BASEL SBB (Switzerland)",
                        "lat": 47.547498,
                        "lon": 7.58944
                    },
                    "end": {
                        "name": "BASEL BAD BF (Germany)",
                        "lat": 47.56722,
                        "lon": 7.607778
                    },
                    "time_s": 360.0
                },
                {
                    "start": {
                        "name": "BASEL BAD BF (Germany)",
                        "lat": 47.56722,
                        "lon": 7.607778
                    },
                    "end": {
                        "name": "FRIEDRICHSHAFEN STADT (Germany)",
                        "lat": 47.653337,
                        "lon": 9.473893
                    },
                    "time_s": 8580.0
                }
            ],
            "total_duration_s": 32820.0,
            "total_distance_km": 898.3952961331667
        },
        {
            "type": "air",
            "legs": [
                {
                    "start": {
                        "name": "NTE"
                    },
                    "end": {
                        "name": "CDG"
                    },
                    "aircraft": "321",
                    "distance": 371.78334166513326
                },
                {
                    "start": {
                        "name": "CDG"
                    },
                    "end": {
                        "name": "FRA"
                    },
                    "aircraft": "E70",
                    "distance": 449.00346723415527
                },
                {
                    "start": {
                        "name": "FRA"
                    },
                    "end": {
                        "name": "FDH"
                    },
                    "aircraft": "CR9",
                    "distance": 271.51330066912493
                }
            ],
            "total_duration_s": "PT10H50M",
            "total_distance_km": 1092.3001095684135
        }
    ]
}