{
    "origin": "Nice",
    "destination": "Glasgow",
    "alternatives": [
        {
            "type": "rail",
            "legs": [
                {
                    "start": {
                        "name": "NICE VILLE (France)",
                        "lat": 43.704448,
                        "lon": 7.261945
                    },
                    "end": {
                        "name": "PARIS GARE DE LYON (France)",
                        "lat": 48.845001,
                        "lon": 2.373611
                    },
                    "time_s": 20760.0
                },
                {
                    "start": {
                        "name": "PARIS GARE DE LYON (France)",
                        "lat": 48.845001,
                        "lon": 2.373611
                    },
                    "end": {
                        "name": "PARIS NORD (France)",
                        "lat": 48.880275,
                        "lon": 2.355282
                    },
                    "time_s": 2400.0
                },
                {
                    "start": {
                        "name": "PARIS NORD (France)",
                        "lat": 48.880275,
                        "lon": 2.355282
                    },
                    "end": {
                        "name": "PARIS NORD (France)",
                        "lat": 48.880275,
                        "lon": 2.355282
                    },
                    "time_s": 2100.0
                },
                {
                    "start": {
                        "name": "PARIS NORD (France)",
                        "lat": 48.880275,
                        "lon": 2.355282
                    },
                    "end": {
                        "name": "LONDON ST PANCRAS INTL (United Kingdom)",
                        "lat": 51.530555,
                        "lon": -0.125274
                    },
                    "time_s": 4620.0
                },
                {
                    "start": {
                        "name": "LONDON ST PANCRAS INTL (United Kingdom)",
                        "lat": 51.530555,
                        "lon": -0.125274
                    },
                    "end": {
                        "name": "LONDON EUSTON (United Kingdom)",
                        "lat": 51.525836,
                        "lon": -0.133058
                    },
                    "time_s": 3600.0
                },
                {
                    "start": {
                        "name": "LONDON EUSTON (United Kingdom)",
                        "lat": 51.525836,
                        "lon": -0.133058
                    },
                    "end": {
                        "name": "GLASGOW CENTRAL (United Kingdom)",
                        "lat": 55.857504,
                        "lon": -4.257777
                    },
                    "time_s": 16620.0
                }
            ],
            "total_duration_s": 54780.0,
            "total_distance_km": 1584.795609503918
        },
        {
            "type": "air",
            "legs": [
                {
                    "start": {
                        "name": "NCE"
                    },
                    "end": {
                        "name": "AMS"
                    },
                    "aircraft": "73W",
                    "distance": 978.8657825569127
                },
                {
                    "start": {
                        "name": "AMS"
                    },
                    "end": {
                        "name": "GLA"
                    },
                    "aircraft": "73J",
                    "distance": 717.9574758733316
                }
            ],
            "total_duration_s": "PT10H35M",
            "total_distance_km": 1696.8232584302443
        }
    ]
}