{
    "origin": "Prague",
    "destination": "Belgrade",
    "alternatives": [
        {
            "type": "rail",
            "legs": [
                {
                    "start": {
                        "name": "PRAGUE HLAVNI NADRAZI (Czech Republic)",
                        "lat": 50.081386,
                        "lon": 14.435274
                    },
                    "end": {
                        "name": "SCHWANDORF (Germany)",
                        "lat": 49.326391,
                        "lon": 12.103885
                    },
                    "time_s": 12360.0
                },
                {
                    "start": {
                        "name": "SCHWANDORF (Germany)",
                        "lat": 49.326391,
                        "lon": 12.103885
                    },
                    "end": {
                        "name": "NUERNBERG HBF (Germany)",
                        "lat": 49.445552,
                        "lon": 11.083052
                    },
                    "time_s": 4440.0
                },
                {
                    "start": {
                        "name": "NUERNBERG HBF (Germany)",
                        "lat": 49.445552,
                        "lon": 11.083052
                    },
                    "end": {
                        "name": "SIEGBURG/BONN (Germany)",
                        "lat": 50.793889,
                        "lon": 7.203056
                    },
                    "time_s": 12300.0
                },
                {
                    "start": {
                        "name": "SIEGBURG/BONN (Germany)",
                        "lat": 50.793889,
                        "lon": 7.203056
                    },
                    "end": {
                        "name": "AACHEN HBF (Germany)",
                        "lat": 50.767776,
                        "lon": 6.091387
                    },
                    "time_s": 5340.0
                },
                {
                    "start": {
                        "name": "AACHEN HBF (Germany)",
                        "lat": 50.767776,
                        "lon": 6.091387
                    },
                    "end": {
                        "name": "WELKENRAEDT (Belgium)",
                        "lat": 50.659447,
                        "lon": 5.975274
                    },
                    "time_s": 900.0
                },
                {
                    "start": {
                        "name": "WELKENRAEDT (Belgium)",
                        "lat": 50.659447,
                        "lon": 5.975274
                    },
                    "end": {
                        "name": "BRUXELLES-MIDI (Belgium)",
                        "lat": 50.835554,
                        "lon": 4.336387
                    },
                    "time_s": 5640.0
                },
                {
                    "start": {
                        "name": "BRUXELLES-MIDI (Belgium)",
                        "lat": 50.835554,
                        "lon": 4.336387
                    },
                    "end": {
                        "name": "DENDERLEEUW (Belgium)",
                        "lat": 50.891665,
                        "lon": 4.071664
                    },
                    "time_s": 1020.0
                },
                {
                    "start": {
                        "name": "DENDERLEEUW (Belgium)",
                        "lat": 50.891665,
                        "lon": 4.071664
                    },
                    "end": {
                        "name": "GRAMMONT (Belgium)",
                        "lat": 50.771111,
                        "lon": 3.87222
                    },
                    "time_s": 1620.0
                }
            ],
            "total_duration_s": 49500.0,
            "total_distance_km": 825.8649165227819
        },
        {
            "type": "air",
            "legs": [
                {
                    "start": {
                        "name": "PRG"
                    },
                    "end": {
                        "name": "BEG"
                    },
                    "aircraft": "AT7",
                    "distance": 742.3313543562568
                }
            ],
            "total_duration_s": "PT1H55M",
            "total_distance_km": 742.3313543562568
        }
    ]
}